StoreNumber,Store,Street,City,State,Zip,Latitude,Longitude
4171484,Dominos,599 E St,Camas,WA,98607,45.5870631,-122.3995363
4171636,Dominos,1 Hwy 87,Fayetteville,WV,25840,38.0528884,-81.1039911
4169475,Dominos,7 Mill Rd,Durham,NH,3824,43.1339545,-70.9264393
4167183,Dominos,25 W D St,Lemoore,CA,93245,36.3091807,-119.7808087
4169558,Dominos,2901 US 1,Lawrenceville,NJ,8648,40.3016375,-74.7361013
4169988,Dominos,10 N Main,Kenton,OH,43326,40.6469982,-83.6096516
4170665,Dominos,507 30 RD,GRAND JUNCTION,TN,38039,35.0489781,-89.1870119
4169202,Dominos,203 N. 7th,Bozeman,MT,59715,45.677778,-111.047222
4169473,Dominos,7 Davis St,Keene,NH,3431,42.933692,-72.2781409
4167780,Dominos,9845 SR 52,Hudson,FL,34669,28.3514986,-82.6579412
4167688,Dominos,12189 US 1,North Palm Beach,FL,33408,26.818333,-80.063611
4168600,Dominos,4 Canal St,Salem,MA,1970,42.5094035,-70.8960686
4169017,Dominos,408 Hwy 50,Union,MO,63084,38.4500517,-91.0084762
4169505,Dominos,454 CR 519,STEWARTSVILLE,NJ,8886,40.6939887,-75.1110317
4169294,Dominos,512 NC-168,Moyock,NC,27958,36.524793,-76.1783247
4170096,Dominos,5765 SR-48,Maineville,OH,45039,39.3150592,-84.2207697
4171136,Dominos,6920 Delta,El Paso,TX,79902,31.7733721,-106.4866062
4170888,Dominos,560 Hwy 79,Hutto,TX,78634,30.5426995,-97.5466702
4170859,Dominos,611 Shiloh,Laredo,TX,78045,27.5883203,-99.4876115
4170772,Dominos,5405 Ave I,Rosenberg,TX,77471,29.5659708,-95.7734266
4171390,Dominos,6 Union St,Yakima,WA,98901,46.6140435,-120.4454218
4166779,Dominos,1002 S Main,Hope,AR,71801,33.6599983,-93.5901551
4167295,Dominos,380 3rd Ave,Chula Vista,CA,91910,32.6400541,-117.0841955
4167870,Dominos,2 E Main St,Apopka,FL,32703,28.676111,-81.510556
4167829,Dominos,36801 SR 52,Dade City,FL,33525,28.3647248,-82.1959178
4167763,Dominos,9 W 45TH ST,Jacksonville,FL,32208,30.3733659,-81.6484353
4168017,Dominos,2000 Hwy 38,Blackshear,GA,31516,31.3060513,-82.2420661
4168011,Dominos,1879 Hwy 13,Buford,GA,30518,34.1040621,-84.0027912
4168115,Dominos,1104 S Main,Moscow,ID,83843,46.732387,-117.000165
4168286,Dominos,646 Rt. 173,Antioch,IL,60002,42.4772418,-88.0956396
4168153,Dominos,4510 Oakton,Skokie,IL,60076,42.0264441,-87.7408875
4168142,Dominos,716 S Logan,West Frankfort,IL,62896,37.8985966,-88.9233622
4168744,Dominos,105 Mayo Rd,Edgewater,MD,21037,38.940564,-76.5629398
4168649,Dominos,382 Main St,Gloucester,MA,1930,42.6186994,-70.6811613
4168646,Dominos,270 Main St,Hanson,MA,2341,42.0170357,-70.8480177
4168605,Dominos,274 Main St,Reading,MA,1867,42.5145882,-71.1052811
4168815,Dominos,7126 Pardee,Taylor,MI,48180,42.240872,-83.2696509
4168814,Dominos,7126 Pardee,Taylor,MI,48180,42.240872,-83.2696509
4168931,Dominos,5862 Oak St,North Branch,MN,55056,45.5102135,-92.9931054
4168899,Dominos,44 W 1st St,Waconia,MN,55387,44.8492593,-93.7807208
4169586,Dominos,441 Main St,East Orange,NJ,7018,40.7564795,-74.2208673
4169518,Dominos,7 Route 206,Raritan,NJ,8869,40.5695474,-74.6329363
4169511,Dominos,102 Main St,Sayreville,NJ,8872,40.4613369,-74.358174
4169869,Dominos,9 Cooper St,Babylon,NY,11702,40.6956692,-73.3256983
4169746,Dominos,147 Main St,Port Washington,NY,11050,40.8256561,-73.6981858
4169721,Dominos,1079 Rt 25A,Stony Brook,NY,10790,42.5229215,-77.6967376
4169979,Dominos,5 E Main St,Madison,OH,44057,41.7716696,-81.0471455
4169965,Dominos,1126 SR-131,Milford,OH,45150,39.1753377,-84.2943821
4169893,Dominos,1710 E Pike,Zanesville,OH,43701,39.9403453,-82.0131924
4170399,Dominos,957 Main St,West Warwick,RI,2893,41.7036711,-71.5215024
4170945,Dominos,1940 FM-407,Highland Village,TX,75077,33.091788,-97.0466759
4170878,Dominos,2331 Fry Rd,Katy,TX,77449,29.8260177,-95.7510475
4170848,Dominos,2405 Fm 423,Little Elm,TX,75068,33.1782633,-96.8873219
4170840,Dominos,4923 34 St.,Lubbock,TX,79410,33.5691904,-101.8977271
4170807,Dominos,2105 FM-523,Oyster Creek,TX,77541,29.0030239,-95.3318823
4170778,Dominos,1858 FM 359,Richmond,TX,77469,29.5413963,-95.6919591
4171374,Dominos,105 Long Rd,Chesterfield,VA,22911,38.1356241,-78.4413881
4167539,Dominos,123 e Us-113,Millsboro,DE,19966,38.5915023,-75.2913018
4167274,Dominos,5024 Ball Rd,Cypress,CA,90630,33.8169599,-118.0372852
4167261,Dominos,936 Broadway,El Cajon,CA,92021,32.7947731,-116.9625269
4167254,Dominos,415 Santa Fe,Encinitas,CA,92024,33.0369867,-117.2919818
4167134,Dominos,27230 La paz,Mission Viejo,CA,92692,33.6147846,-117.637617
4167506,Dominos,314 Route 12,Groton,CT,6340,41.3517324,-72.0349647
4167871,Dominos,532 W SR 436,Altamonte Springs,FL,32714,28.6626293,-81.4114142
4167592,Dominos,365 8th St S,St. Petersburg,FL,33701,27.7612682,-82.6445791
4168004,Dominos,202 East Ave,Cedartown,GA,30125,34.0112715,-85.2565823
4167926,Dominos,5875 HWY 151,Ringgold,GA,30736,34.8956611,-85.1739811
4167889,Dominos,12195 Hwy 92,Woodstock,GA,30188,34.1282829,-84.471469
4168123,Dominos,16 E Bullion,Hailey,ID,83333,43.5196288,-114.3153245
4168240,Dominos,1234 S Canal,Chicago,IL,60605,41.8703314,-87.6235742
4168259,Dominos,3144 W Devon,Chicago,IL,60659,41.9909198,-87.7024817
4168348,Dominos,304 W Walnut,Frankfort,IN,46041,40.2794809,-86.5108355
4168308,Dominos,854 State St,Newburgh,IN,47630,37.9444882,-87.4052865
4168085,Dominos,1027 Main St,Keokuk,IA,52632,40.4044731,-91.3963966
4168386,Dominos,5227 W 95 St,Overland Park,KS,66207,38.9681272,-94.6489858
4168475,Dominos,701 N 3rd St,Bardstown,KY,40004,37.8092279,-85.4669025
4168645,Dominos,57 Dudley St,Haverhill,MA,1830,42.7827019,-71.0824377
4168618,Dominos,173 State St,Newburyport,MA,1950,42.7982871,-70.8749258
4168609,Dominos,5-15 Main ST,Plymouth,MA,2360,41.8804637,-70.645473
4168586,Dominos,R-17 Tremont,Taunton,MA,2780,41.9033893,-71.1008691
4168841,Dominos,2804 Rodd St,Midland,MI,48640,43.6155825,-84.2472116
4169006,Dominos,2350 7th Ave,Anoka,MN,55303,45.304023,-93.4417499
4168915,Dominos,2600 Rice St,Saint Paul,MN,55113,45.0214845,-93.1652832
4168893,Dominos,783 Radio Dr,Woodbury,MN,55125,44.915423,-92.9475662
4169122,Dominos,48 Berry Rd.,Bonne Terre,MO,63628,37.9231069,-90.5554039
4169105,Dominos,305 E Karsch,Farmington,MO,63640,37.7808846,-90.4217895
4169094,Dominos,1271 MAIN ST,Imperial,MO,63052,38.409279,-90.452099
4169052,Dominos,940 Plaza Dr,Saint Clair,MO,63077,38.3475584,-90.9834027
4169575,Dominos,540 Park Ave,Freehold,NJ,7728,40.224382,-74.299051
4169559,Dominos,506 Route 70,LakeHurst,NJ,8733,40.014561,-74.3112574
4169551,Dominos,133 Route 33,Manalapan,NJ,7726,40.282353,-74.346565
4169527,Dominos,933 Main Ave,Passaic,NJ,7055,40.8686545,-74.1346939
4169831,Dominos,1683 Route 9,Clifton Park,NY,12065,42.8672518,-73.7728392
4169713,Dominos,1582 Route 9,Wappingers Falls,NY,12590,41.6148502,-73.8946996
4169416,Dominos,833 Perry Rd,Apex,NC,27502,35.732652,-78.8502856
4169398,Dominos,110 Banks Dr,Chapel Hill,NC,27514,35.921594,-79.130936
4169381,Dominos,10441 Hwy 70,Clayton,NC,27520,35.650711,-78.4563914
4169895,Dominos,1894 Hard Rd,Worthington,OH,43235,40.0931191,-83.017962
4170222,Dominos,241 E Gay St,West Chester,PA,19380,39.9606643,-75.6054882
4170414,Dominos,19 W Main Rd,Newport,RI,2840,41.5061317,-71.3011445
4170413,Dominos,5951 Post Rd,North Kingstown,RI,2852,41.633172,-71.469955
4170400,Dominos,1745 Main St,West Warwick,RI,2893,41.7039863,-71.5308907
4171079,Dominos,5847 Berkman,Austin,TX,78723,30.3081307,-97.681943
4170948,Dominos,511 Hwy 79 S,Henderson,TX,75654,32.1532156,-94.7993802
4170937,Dominos,1421 Wirt Rd,Houston,TX,77002,29.7604267,-95.3698028
4170861,Dominos,100 This Way,Lake Jackson,TX,77566,29.0338575,-95.4343859
4170705,Dominos,4301 S 31 St,Temple,TX,76502,31.0613449,-97.3725621
4171290,Dominos,419 South St,Front Royal,VA,22630,38.9181671,-78.1944446
4171219,Dominos,201 Davis DR,Sterling,VA,20164,39.0065292,-77.3981483
4171204,Dominos,81 W Lee Hwy,Warrenton,VA,20186,38.7134516,-77.7952712
4171423,Dominos,118 Ferry St,Sedro-Woolley,WA,98284,48.50389,-122.23611
4171645,Dominos,403 W Lakeway,Gillette,WY,82716,44.2877722,-105.5110052
4171644,Dominos,430 Uinta Dr.,Green River,WY,82935,41.5285757,-109.4662461
4166736,Dominos,413 3rd St Sw,Cullman,AL,35055,34.1733801,-86.8538916
4166798,Dominos,710 E 32nd St,Yuma,AZ,85364,32.6926512,-114.6276916
4166796,Dominos,712 S 4th Ave,Yuma,AZ,85364,32.7142738,-114.6288681
4167278,Dominos,1510 Baker St,Costa Mesa,CA,92626,33.6834142,-117.9073244
4167098,Dominos,1650 E 4th St,Ontario,CA,91764,34.0812439,-117.619814
4167029,Dominos,3119 Broadway,Sacramento,CA,95817,38.5500434,-121.4599012
4167365,Dominos,1808 Cliff Dr,Santa Barbara,CA,93101,34.4208305,-119.6981901
4166969,Dominos,431 N Ojai Rd,Santa Paula,CA,93060,34.412614,-119.085921
4167497,Dominos,132 Church St,Naugatuck,CT,6770,41.4894408,-73.05639
4167480,Dominos,77 Meriden rd,Waterbury,CT,6705,41.5475082,-73.0177208
4167839,Dominos,4795 Fay Blvd,Cocoa,FL,32927,28.468773,-80.7979821
4167743,Dominos,5315 HWY 98 N,Lakeland,FL,33809,28.1301078,-81.9735137
4167691,Dominos,4563 Hwy 20 E,Niceville,FL,32578,30.5168639,-86.482172
4167680,Dominos,3800 Tampa Rd,Oldsmar,FL,34677,28.0341847,-82.6650992
4168040,Dominos,3505 Baker Rd,Acworth,GA,30101,34.0704366,-84.6591702
4168179,Dominos,837 S Lake St,Mundelein,IL,60060,42.2422174,-88.0040983
4168163,Dominos,2501 Broadway,Quincy,IL,62301,39.942065,-91.395169
4168143,Dominos,200 North Ave,West Chicago,IL,60185,41.9146112,-88.2042989
4168315,Dominos,5374 Broadway,Merrillville,IN,46410,41.4828144,-87.3328139
4168295,Dominos,2619 N 6th St,Vincennes,IN,47591,38.677269,-87.5286325
4168290,Dominos,1486 W Oak St,Zionsville,IN,46077,39.9508733,-86.261937
4168090,Dominos,401 Grand Ave,Des Moines,IA,50309,41.5885349,-93.6229123
4168387,Dominos,11036 Quivira,Overland Park,KS,66215,38.9647235,-94.7381013
4168426,Dominos,304 S Main St,Madisonville,KY,42341,36.9201174,-87.4872535
4168473,Dominos,675 Knox Blvd,Radcliff,KY,40160,37.8403456,-85.9491298
4168779,Dominos,5400 East Dr.,Arbutus,MD,21227,39.2494098,-76.6936252
4168773,Dominos,4101 Falls Rd,Baltimore,MD,21211,39.3376354,-76.6373663
4168608,Dominos,61 Hancock St,Quincy,MA,2171,42.2991086,-71.0111463
4168590,Dominos,624 Boston Rd,Springfield,MA,1103,42.101483,-72.589811
4168851,Dominos,200 Pearl St.,Houghton,MI,49931,47.0979653,-88.5606025
4168825,Dominos,2700 State St,Saginaw,MI,48602,43.446396,-83.975487
4168990,Dominos,455 W 79th St,Chanhassen,MN,55317,44.8422533,-93.5509074
4168933,Dominos,106 E Main St,New Prague,MN,56071,44.4933018,-93.6286055
4169604,Dominos,1769 Route 88,Brick,NJ,8724,40.0876046,-74.1122506
4169594,Dominos,1 Berlin Road,Clementon,NJ,8021,39.8115033,-74.9829443
4169569,Dominos,430 Route 206,Hillsborough,NJ,8844,40.5106322,-74.6472522
4169556,Dominos,440 Broad Ave,Leonia,NJ,7605,40.8614887,-73.9881942
4169546,Dominos,340 Ryders Ln,Milltown,NJ,8850,40.4562164,-74.4432073
4169522,Dominos,61 State Road,Princeton,NJ,8540,40.3646021,-74.66399
4169508,Dominos,59 Academy St,South Orange,NJ,7079,40.7489277,-74.2609903
4169502,Dominos,1501 Rte 37 E,Toms River,NJ,8753,39.9716571,-74.1504455
4169640,Dominos,1610 E Hwy 66,Gallup,NM,87301,35.5280783,-108.7425843
4169625,Dominos,3530 Zafarano,Santa Fe,NM,87507,35.6204185,-106.1345705
4169834,Dominos,103 E Main St,Canton,NY,13617,39.9573059,-82.986011
4169418,Dominos,3254 Ray Road,Anderson Creek,NC,28390,35.2834941,-78.9169696
4169402,Dominos,412 E Main St,Carrboro,NC,27510,40.9473744,-90.3693505
4169224,Dominos,7451 B Hwy 22,Whispering Pines,NC,28327,35.2557123,-79.3722503
4170085,Dominos,5817 Main Ave,Ashtabula,OH,44004,41.8650534,-80.7898089
4170071,Dominos,425 E Wooster,Bowling Green,OH,43402,41.3747744,-83.6513229
4170098,Dominos,224 N Main St,Findlay,OH,44830,41.1575546,-83.4140291
4170004,Dominos,8007 State St,Garrettsville,OH,44231,41.2842224,-81.0964856
4170330,Dominos,625 Elm Ave W,Hanover,PA,17331,39.8006553,-76.9830358
4170326,Dominos,501 S 29th St,Harrisburg,PA,17104,40.255136,-76.857682
4170322,Dominos,1301 Moore St,Huntingdon,PA,16652,40.4956892,-78.0163793
4170225,Dominos,614 E Main St,Waynesboro,Pa,17268,39.755927,-77.5777692
4170410,Dominos,210 Dexter St,Pawtucket,RI,2860,41.8813899,-71.3894349
4170469,Dominos,55 Mathews Dr,Hilton Head,SC,29926,32.2306364,-80.7325287
4170448,Dominos,665 Wilson Rd,Newberry,SC,29108,34.2745833,-81.6187178
4170635,Dominos,2507 Ocoee st,Cleveland,TN,37312,35.1933317,-84.8537177
4170617,Dominos,2116 Roane St,Harriman,TN,37748,35.9098211,-84.5872155
4170573,Dominos,686 Union Ave,Memphis,TN,38103,35.1543632,-90.0606637
4171109,Dominos,710 N Parkway,Alvarado,TX,76009,32.4065312,-97.2116782
4171097,Dominos,1838 S Cooper,Arlington,TX,76013,32.7229925,-97.1520926
4171077,Dominos,636 Boyd Road,Azle,TX,76020,32.8951262,-97.5458565
4171063,Dominos,323 N Main St,Belton,TX,76513,31.0560132,-97.464453
4171031,Dominos,11217 Leopard,Corpus Christi,TX,78410,27.8222933,-97.5788975
4171008,Dominos,101 S Hampton,De Soto,TX,75115,32.5896499,-96.8399843
4171007,Dominos,301 Center St,Deer Park,TX,77536,29.7083968,-95.1236572
4170952,Dominos,4101 Main Ave,Groves,TX,77619,29.9482695,-93.9171155
4170896,Dominos,5733 Kirby Dr,Houston,TX,77005,29.7183467,-95.4306141
4170920,Dominos,9445 Jones Rd,Houston,TX,77065,29.9305879,-95.5984925
4170871,Dominos,901 N 10th St,Killeen,TX,76541,31.1168297,-97.725376
4170796,Dominos,2110 W 5th St,Plainview,TX,79072,34.1843597,-101.7288564
4170748,Dominos,5748 Evers Rd,San Antonio,TX,78240,29.5269768,-98.6105703
4170708,Dominos,605 N Main St,Sweeny,TX,77480,29.0388615,-95.6985608
4170707,Dominos,1010 Lamar St,Sweetwater,TX,79556,32.4709519,-100.4059384
4170689,Dominos,970 N Main St,Vidor,TX,77662,30.1316001,-94.0154541
4170676,Dominos,412 S 17th St,West Columbia,TX,77486,29.1438582,-95.6452249
4170674,Dominos,309 E. Boling,Wharton,TX,77488,29.3116366,-96.1027371
4171339,Dominos,1000c Main St,Altavista,VA,24517,37.1583348,-79.233837
4171327,Dominos,905 N Main St,Blacksburg,VA,24060,37.2295733,-80.4139393
4171300,Dominos,10895 Main St,Fairfax,VA,22030,38.8454321,-77.3209555
4171284,Dominos,31 Miller Cir,Harrisonburg,VA,22801,38.4495688,-78.8689155
4171285,Dominos,41 Burgess Rd,Harrisonburg,VA,22801,38.4495688,-78.8689155
4171276,Dominos,9 Campbell St,Luray,VA,22835,38.665397,-78.4594522
4171273,Dominos,3920 Wards Rd,Lynchburg,VA,24502,37.3210145,-79.1897626
4171232,Dominos,604 N Main St,South Boston,VA,24592,36.6987493,-78.9013987
4171482,Dominos,1879 First St,Cheney,WA,99004,47.48739,-117.575762
4171443,Dominos,19653 7th Ave,Poulsbo,WA,98370,47.7348346,-122.6325106
4171416,Dominos,5620 S. Regal,Spokane,WA,99223,47.5888029,-117.3272224
4171610,Dominos,275 N ST RT 2,New Martinsville,WV,26155,39.6445214,-80.8575993
4171550,Dominos,2402 State Rd,La Crosse,WI,54601,43.7741331,-91.2222805
4171508,Dominos,106 Shaler Dr,Waupun,WI,53963,43.6402416,-88.7210059
4168794,Dominos,518 US Route 1,Kittery,ME,3904,43.1159394,-70.7024832
4169205,Dominos,2522 Grand Ave,Billings,MT,59102,45.7888857,-108.5908853
4169467,Dominos,419 Amherst St,Nashua,NH,3063,42.7795584,-71.5130445
4169463,Dominos,254 N Broadway,Salem,NH,3079,42.7699983,-71.2213156
4170519,Dominos,741 Main Ste 1,Spearfish,SD,57783,44.4921717,-103.851753
4166717,Dominos,8019 US Hwy 31,Hanceville,AL,35077,34.0606545,-86.767498
4166853,Dominos,3510 W Bell Rd,Phoenix,AZ,85053,33.6396892,-112.1330653
4167370,Dominos,5524 York Blvd,Los Angeles,CA,90042,34.1192369,-118.1972691
4167073,Dominos,2138 Spring St,Paso Robles,CA,93446,35.640833,-120.653889
4167366,Dominos,3006 State St.,Santa Barbara,CA,93101,34.4208305,-119.6981901
4166960,Dominos,1937 Tyler Ave,South El Monte,CA,91733,34.0510718,-118.0376209
4166932,Dominos,1571 Geer Road,Turlock,CA,95380,37.4946568,-120.8465941
4166913,Dominos,2521 N Main St,Walnut Creek,CA,94597,37.9093673,-122.0558176
4167406,Dominos,3521 W 10th St,Greeley,CO,80634,40.3962637,-104.7871004
4167388,Dominos,811 E Main St.,Montrose,co,81401,38.4785928,-107.86821
4167485,Dominos,1244 Storrs Rd,Storrs Mansfield,CT,6268,41.8084314,-72.2495231
4167866,Dominos,1093 W Main St,Avon Park,FL,33825,27.5958672,-81.5061862
4167855,Dominos,812 17th Ave W,Bradenton,FL,34205,27.464877,-82.571062
4167793,Dominos,25 Nw 16th Ave,Gainesville,FL,32601,29.666628,-82.3319996
4167782,Dominos,1615 Ne 8th St,Homestead,FL,69138,40.922418,-100.1529433
4167695,Dominos,1933 Ortega St,Navarre,FL,32566,30.4109342,-86.9123217
4167878,Dominos,6975 66th St N,Pinellas Park,FL,33781,27.8355297,-82.7130376
4167600,Dominos,3692 Webber St,Sarasota,FL,34232,27.3179573,-82.4975314
4167593,Dominos,4925 34th St S,St. Petersburg,FL,33711,27.7374908,-82.6861446
4167874,Dominos,5830 9th Ave N,St. Petersburg,FL,33707,27.7537296,-82.7120777
4168003,Dominos,3551 HWY 411 n,Chatsworth,GA,30705,34.7659145,-84.7699385
4167965,Dominos,8496 Tara Blvd,Jonesboro,GA,30236,33.5324319,-84.3663043
4168246,Dominos,2231 N Lincoln,Chicago,IL,60614,41.92282,-87.644601
4168238,Dominos,24 S. Prospect,Clarendon Hills,IL,60514,41.796058,-87.9548047
4168234,Dominos,1135 W Wood St,Decatur,IL,62522,39.8231401,-89.0466016
4168223,Dominos,223 Dundee Ave,Elgin,IL,60120,42.0352856,-88.2558525
4168222,Dominos,1036 S York Rd,Elmhurst,IL,60126,41.8680316,-87.9347172
4168192,Dominos,2801 Ogden Ave,Lisle,IL,60532,41.801141,-88.0747875
4168189,Dominos,1935 Harlem Rd,Loves Park,IL,61111,42.3200189,-89.0581621
4168188,Dominos,8538 OGDEN AVE,Lyons,IL,60534,41.8164482,-87.8350437
4168187,Dominos,8538 OGDEN AVE,Lyons,IL,60534,41.8144472,-87.8107561
4168160,Dominos,3708 14th Ave.,Rock Island,IL,61201,41.4898568,-90.5730713
4168138,Dominos,350 Ridge Road,Wilmette,IL,60091,42.0719949,-87.7333875
4168363,Dominos,1033 Market St,Charlestown,IN,47111,38.438366,-85.699482
4168356,Dominos,5714 N 1st Ave,Evansville,IN,47708,37.9715592,-87.5710898
4168082,Dominos,125 S Delaware,Mason City,IA,50401,43.1535728,-93.2010367
4168072,Dominos,501 Bremer Ave,Waverly,IA,50677,42.7272032,-92.4668511
4168456,Dominos,603 N Miles St,Elizabethtown,KY,42701,37.7030646,-85.8649408
4168410,Dominos,9551 US Hwy 42,Prospect,KY,40059,38.345068,-85.615517
4168689,Dominos,9546 Crain Hwy,Upper Marlboro,MD,20772,38.8159473,-76.7496909
4168656,Dominos,225 Bedford St,East Bridgewater,MA,2333,42.0334341,-70.9592096
4168647,Dominos,459 Russell St,Hadley,MA,1035,42.3417565,-72.5884222
4168619,Dominos,972 Kempton St,New Bedford,MA,2740,41.6355236,-70.9515833
4168610,Dominos,321 Elm Street,Pittsfield,MA,1201,42.4500845,-73.2453824
4168607,Dominos,225 Quincy Ave,Quincy,MA,2169,42.2513682,-70.9962875
4168881,Dominos,33692 Woodward,Birmingham,MI,48009,42.5476303,-83.216311
4168838,Dominos,1332 Apple Ave,Muskegon,MI,49442,43.24433,-86.1141045
4168837,Dominos,1697 W Sherman,Muskegon,MI,49441,43.2123878,-86.317392
4168824,Dominos,3764 Dixie Hwy,Saginaw,MI,48601,43.4157871,-83.8685072
4168948,Dominos,5551 W Lake St,Minneapolis,MN,55416,44.9484769,-93.3456118
4168921,Dominos,440 3rd Ave Se,Rochester,MN,55904,43.9562492,-92.4208713
4168912,Dominos,1110 Grand Ave,Saint Paul,MN,55105,44.9330076,-93.1629063
4169135,Dominos,1221 S Gloster,Tupelo,MS,38801,42.3388111,-71.0765188
4169093,Dominos,3709 Noland Rd,Independence,MO,64055,39.0608919,-94.4079213
4169035,Dominos,8346 Watson Rd,St. Louis,MO,63119,38.5842641,-90.3513021
4169609,Dominos,21 S. Main St.,Barnegat,NJ,8005,39.7376841,-74.2447416
4169581,Dominos,6814 Tilton Rd,Egg Harbor,NJ,8234,39.3480422,-74.663464
4169577,Dominos,26-15 Broadway,Fairlawn,NJ,7410,40.9370006,-74.1181234
4169617,Dominos,245 Rt. 31-202,Flemington,NJ,8822,40.5123258,-74.8593318
4169574,Dominos,401 Harmony Rd,Gibbstown,NJ,8027,39.8251131,-75.2835191
4169566,Dominos,4318 Highway 9,Howell,NJ,7731,40.1452337,-74.2300821
4169851,Dominos,1479 Fulton St,Brooklyn,NY,11216,40.6781784,-73.9441579
4169791,Dominos,7787 Oswego Rd,Liverpool,NY,13090,43.1462926,-76.2226032
4169786,Dominos,371 S.Main St.,Massena,NY,13662,44.9281049,-74.891865
4169762,Dominos,464 3rd Avenue,New York,NY,10016,40.744328,-73.9791458
4169744,Dominos,10 Taft Avenue,Poughkeepsie,NY,12603,41.7003713,-73.9209701
4169718,Dominos,2022 Teall Ave,Syracuse,NY,13206,43.0819995,-76.1211558
4169401,Dominos,1187 W Chatham,Cary,NC,27513,35.8129046,-78.7816219
4169385,Dominos,3223 The Plaza,Charlotte,NC,28205,35.244202,-80.794779
4169383,Dominos,343 S Kings Dr,Charlotte,NC,28204,35.2119554,-80.8338603
4169243,Dominos,1885 US-15 501,Southern Pines,NC,28387,35.1803763,-79.4310822
4170073,Dominos,527 5th Street,Beverly,OH,45715,39.5478509,-81.6395732
4170036,Dominos,2183 N High St,Columbus,OH,43201,40.005789,-83.002872
4170003,Dominos,176 N Broadway,Geneva,OH,44041,41.8316724,-80.9485476
4169991,Dominos,16 E Jefferson,Jefferson,OH,44047,41.7386662,-80.7698066
4169990,Dominos,98 E Coshocton,Johnstown,OH,43031,40.1536742,-82.6851699
4169982,Dominos,1450 N Cole St,Lima,OH,45801,40.742551,-84.1052256
4169942,Dominos,1035 Hill Rd N,Pickerington,OH,43147,39.8842304,-82.7535049
4170092,Dominos,7208 Market St,Wilmington,OH,45177,39.4453393,-83.8285375
4170116,Dominos,1 N Mission St,Sapulpa,OK,74066,35.9987007,-96.1141664
4170110,Dominos,3151 S Garnett,Tulsa,OK,74129,36.1258713,-95.85121
4170308,Dominos,1200 Market St,Lemoyne,PA,17043,40.2412008,-76.8941403
4170303,Dominos,203 Jay Street,Lock Haven,PA,17745,41.1429201,-77.4215803
4170259,Dominos,2 ANTHRA PLAZA,RANSHAW,PA,17866,40.7859192,-76.5180124
4170491,Dominos,1124 Devine St,Columbia,SC,29201,33.9939402,-81.0311435
4170493,Dominos,5424 Forest Dr,Columbia,SC,29206,34.0258687,-80.9594751
4170427,Dominos,113 N Earle St,Walhalla,SC,29691,34.7648176,-83.0640417
4170624,Dominos,409 S Main Ave,Fayetteville,TN,37334,35.1520266,-86.5705508
4171024,Dominos,15201 Mason Rd,Cypress,TX,77433,29.9950237,-95.738861
4170998,Dominos,11660 Montwood,El Paso,TX,79936,31.7599791,-106.287521
4170999,Dominos,12420 Edgemere,El Paso,TX,79938,31.8403844,-105.92299
4170995,Dominos,2128 Wedgewood,El Paso,TX,79925,31.7691793,-106.1800418
4170938,Dominos,2927 Bingle Rd,Houston,TX,77002,29.7604267,-95.3698028
4170903,Dominos,4226 Ella Blvd,Houston,TX,77018,29.8272216,-95.4295267
4170855,Dominos,1101 W Main St,League City,TX,77573,29.4779928,-95.105214
4170853,Dominos,409 E. Hwy 114,Levelland,TX,79336,33.5873164,-102.37796
4170829,Dominos,2016 Nolana St,Mcallen,TX,78504,26.286431,-98.2316326
4170827,Dominos,515 N Galloway,Mesquite,TX,75149,32.7667955,-96.5991593
4170818,Dominos,6309 Highway 6,Missouri City,TX,77459,29.4773092,-95.5302337
4170814,Dominos,2403 North St.,Nacogdoches,TX,75961,31.5941955,-94.5211935
4170809,Dominos,1106 E 42nd St,Odessa,TX,79762,31.9626279,-102.3807553
4170721,Dominos,134 Pine Plaza,Silsbee,TX,77656,30.3490976,-94.1779624
4170697,Dominos,5111 Troup Hwy,Tyler,TX,75702,32.3512601,-95.3010624
4171177,Dominos,5349 W 11000 N,Highland,UT,84003,40.4248665,-111.7979285
4171324,Dominos,105 Timber Way,Broadway,VA,22815,38.613175,-78.798912
4171321,Dominos,14120a Lee Hwy,Centreville,VA,20120,38.8403909,-77.4288769
4171309,Dominos,2227 Boulevard,Colonial Heights,VA,23834,37.244039,-77.4102607
4171367,Dominos,7959 Kings Hwy,King George,VA,22485,38.2664512,-77.1807842
4171209,Dominos,368 Newtown Rd,Virginia Beach,VA,23462,36.8400852,-76.1493891
4171350,Dominos,2886 Dale Blvd,Woodbridge,VA,22191,38.6581722,-77.2497049
4171454,Dominos,9815 State Ave,Marysville,WA,98270,48.0563616,-122.1492224
4171403,Dominos,515 Custer Way,Tumwater,WA,98501,47.0073187,-122.9093063
4171586,Dominos,1100 Armory Dr,Franklin,WI,53132,42.888627,-88.0384195
4171539,Dominos,7171 N 76Th St,Milwaukee,WI,53223,43.1666739,-87.9824758
4171583,Dominos,1112 E Main St,Pulaski,WI,54162,44.6735224,-88.2448169
4171513,Dominos,3033 Church St,Stevens Point,WI,54481,44.5235792,-89.574563
4171510,Dominos,1009 E MAIN ST,WATERTOWN,WI,53094,43.1947211,-88.7289918
4171509,Dominos,325 E North St,Waukesha,WI,53188,43.0165459,-88.2947675
4167531,Dominos,1728 Marsh Road,Wilmington,DE,19810,39.8052855,-75.5102465
4169449,Dominos,14330 Hillsdale,Omaha,NE,68138,41.1770136,-96.1390123
4169476,Dominos,250 Central Ave,Dover,NH,3820,43.1978624,-70.8736698
4169470,Dominos,91 Maple Street,Manchester,NH,3103,42.9764743,-71.4427447
4171388,Dominos,322 N. Main st.,Barre,Vt,5641,44.1970055,-72.5020494
4166851,Dominos,7045 N 35th Ave,Phoenix,AZ,85051,33.5651587,-112.1370601
4166832,Dominos,223 N Cortez St,Prescott,AZ,86303,34.5400242,-112.4685025
4166826,Dominos,23359 N Pima Rd,Scottsdale,AZ,85255,33.6803004,-111.8330106
4166816,Dominos,6875 E. Sunrise,Tucson,AZ,85756,32.1539214,-110.8406668
4167327,Dominos,725 W Hobsonway,Blythe,CA,92225,33.619167,-114.716667
4167323,Dominos,8682 Beach Blvd,Buena Park,CA,90620,33.8428724,-118.0127534
4167280,Dominos,230 E. 17th St.,Costa Mesa,CA,92627,33.6411316,-117.9186689
4167189,Dominos,10135 Maine Ave,Lakeside,CA,92040,32.8572718,-116.9222488
4167055,Dominos,2056 Eureka Way,Redding,CA,96001,40.5865396,-122.3916754
4167034,Dominos,8350 Garvey Ave,Rosemead,CA,91770,34.0805651,-118.072846
4167006,Dominos,2015 Garnet Ave,San Diego,CA,92109,32.7989226,-117.2327639
4167008,Dominos,3520 Ashford St,San Diego,CA,92111,32.8077182,-117.1648033
4167018,Dominos,3806 Chosin Ave,San Diego,CA,92140,32.7407191,-117.2036713
4166992,Dominos,907 Del Mar Ave,San Jose,CA,95128,37.3189149,-121.9416226
4167472,Dominos,5171 W 64th Ave,Arvada,CO,80003,39.8292236,-105.0534567
4167424,Dominos,3920 S Broadway,Englewood,CO,80110,39.6453385,-104.9872542
4167423,Dominos,911 Moraine Ave,Estes Park,CO,80517,40.350242,-105.5387682
4167410,Dominos,2404 S Glen Ave,Glenwood Springs,CO,81601,39.5505376,-107.3247762
4167394,Dominos,5829 S Broadway,Littleton,CO,80121,39.6075101,-104.9880334
4167386,Dominos,28 Cardinal Way,Parachute,CO,81635,39.4519225,-108.0528529
4167373,Dominos,605 Midland Ave,Woodland Park,CO,80863,39.001965,-105.062837
4167484,Dominos,1802 Barnum Ave,Stratford,CT,6614,41.195301,-73.14206
4167862,Dominos,10101 Glades Rd,Boca Raton,FL,33498,26.377965,-80.217028
4167856,Dominos,1403 57th Ave W,Bradenton,FL,34207,27.4399922,-82.5780878
4167797,Dominos,2106 Sw 13th St,Gainesville,FL,32608,29.6377514,-82.3491269
4167881,Dominos,5606 Marina Dr.,Holmes Beach,FL,34217,27.4953156,-82.7109329
4167766,Dominos,7020 Beach Blvd,Jacksonville,FL,32216,30.288082,-81.5873471
4167571,Dominos,1005 N Tampa St,Tampa,FL,33602,27.9525806,-82.4586544
4168038,Dominos,13695 Highway 9,Alpharetta,GA,30009,34.0753762,-84.2940899
4168028,Dominos,4763 Buford Hwy,Atlanta,GA,30341,33.8992049,-84.3016021
4167989,Dominos,222 W Cuyler St,Dalton,GA,30720,34.7698021,-84.9702228
4167982,Dominos,3406 Buford Hwy,Duluth,GA,30096,34.0289803,-84.1682092
4168050,Dominos,406 W Taylor St,Griffin,GA,30223,33.2467807,-84.2640904
4168134,Dominos,1675 Market Way,Ammon,ID,83406,43.4696366,-111.9666355
4168121,Dominos,945 W. Broadway,Idaho Falls,ID,83402,43.4916514,-112.0339645
4168119,Dominos,1027 E. Kuna Rd,Kuna,ID,83634,43.4918307,-116.4201223
4168113,Dominos,1011 12th Ave S,Nampa,ID,83686,43.5577071,-116.5734146
4168284,Dominos,325 E Rand Road,Arlington Heights,IL,60004,42.1099506,-87.9824758
4168281,Dominos,127 E. State St,Batavia,IL,60510,41.8512576,-88.305164
4168231,Dominos,1169 Lee Street,Des Plaines,IL,60016,42.030666,-87.9113888
4168227,Dominos,541 Dundee Ave.,East Dundee,IL,60118,42.0989145,-88.2714689
4168212,Dominos,229 Barron Blvd,Grayslake,IL,60030,42.3444664,-88.041746
4168196,Dominos,890 S. Rand Rd.,Lake Zurich,IL,60047,42.1835828,-88.0846378
4168181,Dominos,11 E Jackson St,Morton,IL,61550,40.6128161,-89.4592609
4168169,Dominos,450 E Dundee Rd,Palatine,IL,60074,42.1303943,-88.0216334
4168161,Dominos,4767 Sauk Trail,Richton Park,IL,60471,41.48419,-87.741884
4168140,Dominos,12 W Dundee Rd.,Wheeling,IL,60090,42.1391927,-87.9289591
4168394,Dominos,832 Iowa Street,Lawrence,KS,66044,38.9769381,-95.2604236
4168466,Dominos,757 Bypass Road,Brandenburg,KY,40108,37.9989592,-86.1694143
4168450,Dominos,810 W Cherry St,Glasgow,KY,42141,36.9958839,-85.9119215
4168411,Dominos,115 Pike Street,Pikeville,KY,41501,37.4792672,-82.5187629
4168523,Dominos,4115 Highway 59,Mandeville,LA,70471,30.3582506,-90.0656311
4168569,Dominos,937 Creswell Ln,Opelousas,LA,70570,30.5335302,-92.081509
4168655,Dominos,11 Union Street,Easthampton,MA,1027,42.266757,-72.66898
4168625,Dominos,385 Franklin St,Melrose,MA,2176,42.4584292,-71.0661633
4168622,Dominos,240 Chestnut St,Needham,MA,2492,42.2748016,-71.2458436
4168592,Dominos,21c Turnpike Rd,Southborough,MA,1745,42.2923845,-71.4996891
4168830,Dominos,979 S Lapeer Rd,Oxford,MI,48371,42.8247524,-83.2646624
4168803,Dominos,2121 S Grove Rd,Ypsilanti,MI,48198,42.2411499,-83.6129939
4168991,Dominos,1595 2nd Ave NE,Cambridge,MN,55008,45.5656755,-93.2258999
4168966,Dominos,2508 E Beltline,Hibbing,MN,55746,47.4271546,-92.9376887
4168959,Dominos,12925 Lake Blvd,Lindstrom,MN,55045,45.3894083,-92.8479921
4168896,Dominos,107 Wildwood Rd,Willernie,MN,55090,45.0570949,-92.9565125
4169174,Dominos,1303D Sunset Dr,Grenada,MS,38901,33.769005,-89.808419
4169138,Dominos,460 Church Road,Southaven,MS,38671,34.9837306,-89.9906734
4169073,Dominos,827 West Monroe,Mexico,MO,65265,39.1730652,-91.887271
4169064,Dominos,9620 Olive Blvd,Olivette,MO,63132,38.6653297,-90.3759499
4169707,Dominos,1014 Nevada Way,Boulder City,NV,89005,35.9782216,-114.8345117
4169596,Dominos,911 Church Road,Cherry Hill,NJ,8002,39.9311729,-75.0260667
4169583,Dominos,2058-A Route 27,Edison,NJ,8817,40.5187154,-74.4120953
4169520,Dominos,2600 Bridge Ave,Pt Pleasant,NJ,8742,40.0851765,-74.0593872
4169492,Dominos,50 Mt Bethel Rd,Warren,NJ,7059,40.6342489,-74.5004796
4169491,Dominos,50 Mt Bethel Rd,Warren,NJ,7059,40.6208604,-74.511172
4169489,Dominos,436 Main Street,West Orange,NJ,7052,40.7985699,-74.2390828
4169479,Dominos,500 McBride Ave,Woodland Park,NJ,7424,40.9066053,-74.1924619
4169655,Dominos,3920 Central SE,Albuquerque,NM,87108,35.0734065,-106.5760857
4169816,Dominos,93 W Merrick Rd,Freeport,NY,11520,40.6576022,-73.5831835
4169806,Dominos,967 Main Street,Holbrook,NY,11741,40.7941562,-73.0700421
4169879,Dominos,1148 Douglas Rd,OSWEGO,NY,13126,43.4553461,-76.5104973
4169340,Dominos,3192a E 10th St,Greenville,NC,27858,35.5999329,-77.3339458
4169427,Dominos,821-I S Main St,Kernersville,NC,27284,36.1198588,-80.0736533
4170088,Dominos,730 E Market St,Akron,OH,44305,41.0745913,-81.460856
4170103,Dominos,100 S. Main St.,Andover,OH,44003,41.6067211,-80.572296
4170060,Dominos,114 E Market St,Celina,OH,45822,40.5487566,-84.5527816
4170052,Dominos,5083 Delhi Pike,Cincinnati,OH,45238,39.1031327,-84.6165146
4170021,Dominos,1450 Kuntz Road,Dayton,OH,45404,39.7883458,-84.1723144
4170024,Dominos,5391 N Dixie Dr,Dayton,OH,45414,39.8476384,-84.2173403
4170006,Dominos,1315 W State St,Fremont,OH,43420,41.3503303,-83.1218634
4169992,Dominos,500 Main Street,Huron,OH,44839,41.3950489,-82.5551733
4170094,Dominos,6444 Pearl Road,Parma Heights,OH,44130,41.3900518,-81.7595769
4169932,Dominos,205 N. Main St.,Springboro,OH,45066,39.5522815,-84.2332718
4169926,Dominos,105 Plaza Drive,St. Clairsvillee,OH,43950,40.0803199,-80.90176
4169911,Dominos,117 Main Street,Wadsworth,OH,44281,41.0256101,-81.7298519
4170149,Dominos,813 E. Broadway,Altus,OK,73521,34.637765,-99.3340442
4170129,Dominos,1236 Alameda St,Norman,OK,73071,35.2407401,-97.4056928
4170106,Dominos,16 W 4th Street,Tulsa,OK,74103,36.1592882,-95.9964783
4170111,Dominos,6927 S Sheridan,Tulsa,OK,74136,36.0613546,-95.9515399
4170207,Dominos,10081 SW Nimbus,Beaverton,OR,97008,45.4618042,-122.7999141
4170196,Dominos,407 NE E Street,Grants Pass,OR,97526,42.4393136,-123.3169476
4170362,Dominos,851 Main Street,Clarion,PA,16214,41.212257,-79.386398
4170358,Dominos,318 Chestnut St,Columbia,PA,17512,40.0337085,-76.5044098
4170335,Dominos,266 E Street Rd,Feasterville-Trevose,PA,19053,40.1466378,-74.9952259
4170248,Dominos,1316 N Main Ave,Scranton,PA,18508,41.459605,-75.6731734
4170230,Dominos,157 69TH STREET,Upper Darby,PA,19082,39.9573936,-75.2654063
4170417,Dominos,250 Mendon road,Cumberland,RI,2864,41.9229809,-71.4106766
4170437,Dominos,926 By Pass 123,Seneca,SC,29678,34.6856555,-82.9532036
4170626,Dominos,1946 W. Elk Ave,Elizabethton,TN,37643,36.3487196,-82.2106876
4170588,Dominos,225 E Gaines St,Lawrenceburg,TN,38464,35.2423023,-87.3347389
4170540,Dominos,402 N Spring St,Sparta,TN,38583,35.9576208,-85.0491671
4171108,Dominos,112 W Coombs St,Alvin,TX,77511,29.3845708,-95.2475518
4171091,Dominos,8141 Mesa Dr #C,Austin,TX,78759,29.8363604,-95.2622149
4171067,Dominos,1395 College St,Beaumont,TX,77701,30.1282828,-94.1468701
4171068,Dominos,240 Dowlen Road,Beaumont,TX,77706,30.0988666,-94.166734
4171069,Dominos,3970 E Lucas Dr,Beaumont,TX,77708,30.1515542,-94.1411406
4171055,Dominos,1012 Coggin Ave,Brownwood,TX,76801,31.7093197,-98.9911611
4171046,Dominos,306 S Bell Blvd,Cedar Park,TX,78765,30.2866913,-97.7967264
4171032,Dominos,3812B S Staples,Corpus Christi,TX,78412,27.700785,-97.3462545
4170989,Dominos,100 Ector Drive,Euless,TX,76040,32.8364847,-97.0907212
4170977,Dominos,2801 W Berry St,Fort Worth,TX,76109,32.6986242,-97.3786689
4170982,Dominos,7630 N Beach St,Fort Worth,TX,76102,32.7554883,-97.3307658
4170972,Dominos,317 N Gulf Blvd,Freeport,TX,77541,28.9541368,-95.3596617
4170965,Dominos,1514 Rowlett Rd,Garland,TX,75040,32.912624,-96.6388833
4170912,Dominos,13112 Fm 529 Rd,Houston,TX,77041,29.9151171,-95.6160212
4170927,Dominos,2030 Gessner Dr,Houston,TX,77080,29.8183406,-95.5249863
4170933,Dominos,3301 Tidwell Rd,Houston,TX,77093,29.8463612,-95.392218
4170910,Dominos,6557 Fondren Rd,Houston,TX,77036,29.702465,-95.5354816
4170925,Dominos,6741 Airline Dr,Houston,TX,77076,29.8585737,-95.38872
4171131,Dominos,7103 FM 1488 Rd,Magnolia,TX,77355,30.2093794,-95.7507815
4171126,Dominos,3937 Summer Ave,Memphis,TX,79245,34.7247758,-100.5340144
4171124,Dominos,2435 Texas Pkwy,Missouri City,TX,77489,29.6185669,-95.5377215
4171123,Dominos,2251 Linda Ave.,Odessa,TX,60607,41.8810644,-87.663045
4170773,Dominos,2330 Greencrest,Rockwall,TX,75087,32.9682679,-96.4609998
4170771,Dominos,15070 Highway 6,Rosharon,TX,77583,29.3522632,-95.4602763
4171119,Dominos,11125 Park Blvd,Seminole,TX,79360,32.7189926,-102.6449101
4171116,Dominos,6007 Fm 2920 Rd,Spring,TX,77373,30.0799405,-95.4171601
4170716,Dominos,7816 Louetta Rd,SPRING,TX,77379,30.0314279,-95.5302337
4170701,Dominos,3028 Palmer Hwy,Texas City,TX,77590,29.3955745,-94.9402296
4171149,Dominos,7896 AIRPORT RD,WEST JORDAN,UT,84088,40.5934061,-111.9641728
4171317,Dominos,508 Stewart St.,Charlottesville,VA,22902,38.0283144,-78.4661378
4171307,Dominos,111 Sandy Court,Danville,VA,24541,36.5859718,-79.3950228
4171274,Dominos,18243 Forest Rd,Lynchburg,VA,24502,37.3466983,-79.2112769
4171269,Dominos,10528 Lomond Dr,Manassas,VA,20109,38.7839448,-77.4990403
4171268,Dominos,730 E Church St,Martinsville,VA,24112,36.6915262,-79.8725386
4171251,Dominos,338 Potomac Ave,Quantico,VA,22134,38.501667,-77.3055569
4171246,Dominos,9451 Hull St Rd,Richmond,Va,23236,37.4759039,-77.590597
4171231,Dominos,426 Furr Street,SOUTH HILL,VA,23970,36.726532,-78.1288857
4171489,Dominos,402 36th Street,Bellingham,WA,98225,48.7562157,-122.4894588
4171486,Dominos,3720 Kitsap Way,Bremerton,WA,98312,47.5887057,-122.6751429
4171452,Dominos,2800 Milton Way,Milton,WA,98354,47.2498904,-122.3178467
4171446,Dominos,3802 W Court St,Pasco,WA,99301,46.2395793,-119.1005657
4171554,Dominos,1260 Milton Ave,Janesville,WI,53545,42.6827885,-89.0187222
4171523,Dominos,1304 EASTERN AV,Plymouth,WI,53073,43.7486054,-87.9770379
4167537,Dominos,1202 Delaware St,New Castle,DE,19720,39.6620397,-75.5668166
4169456,Dominos,2155 E. 23rd St.,Fremont,NE,68025,41.4333909,-96.4981467
4169474,Dominos,725 Lafayette Rd,Hampton,NH,3842,42.9375932,-70.8389219
4166876,Dominos,13706 N 51st Ave,Glendale,AZ,85304,33.5903698,-112.1728283
4166856,Dominos,10845 N 99th Ave,Peoria,AZ,85345,33.5704697,-112.2503239
4166831,Dominos,4572 N Robert Rd,Prescott Valley,AZ,86314,34.6062718,-112.3099336
4166794,Dominos,3120 Pine St # A,Arkadelphia,AR,71923,34.1183611,-93.0960029
4166775,Dominos,4656 N Highway 7,Hot Springs Village,AR,71909,34.6268402,-92.9975593
4166766,Dominos,115 Carnahaan Dr,Maumelle,AR,72113,34.8667565,-92.4043219
4167322,Dominos,1600 W Olive Ave,Burbank,CA,91506,34.163018,-118.319742
4167276,Dominos,4238 S Sepulveda,Culver City,CA,90230,34.0052909,-118.4103066
4167275,Dominos,241 Atlanta Road,Cumming,CA,93657,36.778261,-119.4179324
4167258,Dominos,4561 N Peck Road,El Monte,CA,91732,34.0791053,-118.0127534
4167248,Dominos,529 W Ventura St,Fillmore,CA,93015,34.39737,-118.914313
4167210,Dominos,21172 Beach Blvd,Huntington Beach,CA,92648,33.6781963,-118.0127534
4167069,Dominos,9448 Slauson Ave,Pico Rivera,CA,90660,33.9870228,-118.0947106
4167065,Dominos,1285 S Garey Ave,Pomona,CA,91766,34.0482205,-117.7339737
4167060,Dominos,1304 Main Street,Ramona,CA,92065,33.0413604,-116.8792553
4167054,Dominos,345 Pearl Street,Redlands,CA,92373,34.0555693,-117.1825381
4167001,Dominos,101 N Maclay Ave,San Fernando,CA,91340,34.2845684,-118.4400073
4166993,Dominos,5313 Prospect Rd,San Jose,CA,95129,37.3052272,-121.9871217
4166959,Dominos,3538 Tweedy Blvd,South Gate,CA,90280,33.954737,-118.2120161
4166957,Dominos,11921 Beach Blvd,Stanton,CA,90680,33.8024822,-117.9930967
4167458,Dominos,1089 Highway 133,Carbondale,CO,81623,39.4022054,-107.2111628
4167448,Dominos,1102 N Circle Dr,Colorado Springs,CO,80909,38.8470941,-104.7620411
4167449,Dominos,6870 Galley Road,Colorado Springs,CO,80915,38.8563576,-104.6995991
4167438,Dominos,18630 E 48th Ave,Denver,CO,80249,39.8058192,-104.7721911
4167434,Dominos,3941 E 120th Ave,Denver,CO,80233,39.9122821,-104.9402406
4167384,Dominos,1930 Hwy 50 West,Pueblo,CO,81008,38.5003101,-104.6354631
4167516,Dominos,2308 Main Street,Bridgeport,CT,6606,41.1957883,-73.2023518
4167501,Dominos,641 East Main St,Meriden,CT,6450,41.5267443,-72.784774
4167872,Dominos,15634 NW Hwy 441,Alachua,FL,32615,29.8303455,-82.4969331
4167843,Dominos,2659 Ulmerton Rd,Clearwater,FL,33762,27.9006925,-82.6861446
4167824,Dominos,209 N Amelia Ave,Deland,FL,32724,29.0428363,-81.2997866
4167801,Dominos,656 Beal Pkwy Nw,Fort Walton Beach,FL,32547,30.4200708,-86.6170308
4167799,Dominos,4620 NW 39th Ave,Gainesville,FL,32601,29.6516344,-82.3248262
4167739,Dominos,12735 Starkey Rd,Largo,FL,33773,27.8944894,-82.767398
4167709,Dominos,1575 SW 8 Street,Miami,FL,33134,25.7564662,-80.2711588
4167621,Dominos,1553 E Sample Rd,Pompano Beach,FL,33064,26.2785918,-80.097046
4167597,Dominos,2179 US 27 North,Sebring,FL,33870,27.495592,-81.440907
4167569,Dominos,457 Duncan Drive,Tavares,FL,32778,28.8041579,-81.725632
4167997,Dominos,159 S Elm Street,Commerce,GA,30529,34.203997,-83.4571057
4167988,Dominos,6625 Hwy 53 East,Dawsonville,GA,30534,34.4212052,-84.1190804
4167987,Dominos,1303 Columbia Dr,Decatur,GA,30032,33.7414395,-84.2594861
4167986,Dominos,103A N Jefferson,Douglas,GA,31533,31.5088073,-82.8498654
4168045,Dominos,705 Hwy 42 South,Mcdonough,GA,30253,33.4473361,-84.1468616
4167921,Dominos,1100 Hammond Dr.,Sandy Springs,GA,30328,33.9304352,-84.3733147
4167899,Dominos,19 W Currahee St,Toccoa,GA,30577,34.5773206,-83.3323851
4167898,Dominos,4121 Lavista Rd.,Tucker,GA,30084,33.8545479,-84.2171424
4167895,Dominos,210 Northside Dr,Valdosta,GA,31602,30.8633251,-83.2841523
4167892,Dominos,2699 Watson Blvd,Warner Robins,GA,31093,32.6341446,-83.6644324
4168132,Dominos,8966 W Ardene St,Boise,ID,83709,43.5516566,-116.29879
4168257,Dominos,2455 W Fullerton,Chicago,IL,60647,41.9245581,-87.6896025
4168255,Dominos,857 W. 115th St.,Chicago,IL,60643,41.677378,-87.653802
4168213,Dominos,2201 Madison Ave,Granite City,IL,62040,38.7014389,-90.1487199
4168326,Dominos,410 US 231 SOUTH,Jasper,IN,47546,38.3914418,-86.9311094
4168322,Dominos,1221 S Creasy Ln,Lafayette,IN,47905,40.4167022,-86.8752869
4168314,Dominos,2316 Franklin St,Michigan City,IN,46360,41.7054843,-86.821753
4168307,Dominos,597 Westfield Rd,Noblesville,IN,46060,40.0031928,-85.9646194
4168100,Dominos,2024 College St.,Cedar Falls,IA,50613,42.5348993,-92.4453161
4168093,Dominos,902 Army Post Rd,Des Moines,IA,50315,41.5346558,-93.6116494
4168074,Dominos,7620 Douglas Ave,Urbandale,IA,50322,41.6304923,-93.7333537
4168397,Dominos,937 Lincoln Lane,Gardner,KS,66030,38.8108408,-94.9271868
4168376,Dominos,4734 S. Broadway,Wichita,KS,67216,37.613743,-97.3192542
4168418,Dominos,1003 Burlew Blvd,Owensboro,KY,42303,37.7719074,-87.1111676
4168751,Dominos,2135 Defense Hwy,Crofton,MD,21114,39.0017772,-76.6874671
4168783,Dominos,7400 Ritchie Hwy,Glen Burnie,MD,21061,39.1626084,-76.6246886
4168712,Dominos,2708 Mountain Rd,Pasadena,MD,21122,39.1073317,-76.5710753
4168705,Dominos,240 Colonial Way,Rising Sun,MD,21911,39.6978871,-76.0627266
4168687,Dominos,371 Smallwood Dr,Waldorf,MD,20602,38.593093,-76.9066829
4168660,Dominos,1273 Memorial Dr,Chicopee,MA,1013,42.1487043,-72.6078672
4168685,Dominos,933 Pleasant St.,Fall River,MA,2723,41.6921302,-71.1359897
4168882,Dominos,1213 Kosciuszcko,Bay City,MI,48706,43.5944677,-83.8888647
4168878,Dominos,740 Benstein Rd.,Commerce,MI,48390,42.5513866,-83.4750241
4168866,Dominos,4402 Fenton Road,Flint,MI,48507,42.9753551,-83.7517851
4168846,Dominos,820 W Saginaw St,Lansing,MI,48915,42.737429,-84.56498
4168840,Dominos,706 S Mission St,Mount Pleasant,MI,48858,43.5978075,-84.7675139
4168827,Dominos,4324 14 Mile Rd.,Rockford,MI,49341,43.1453912,-85.5888032
4168810,Dominos,5684 Highland Rd,Waterford,MI,48328,42.6506866,-83.3681486
4168894,Dominos,1201 Gilmore Ave,Winona,MN,55987,43.9888981,-91.6566377
4169184,Dominos,1510 Main Street,Columbus,MS,39701,33.4984075,-88.3991606
4169143,Dominos,114 Highway 15 N,Pontotoc,MS,38863,34.2478831,-88.998673
4169126,Dominos,1631 N Scott Ave,Belton,MO,64012,38.8119527,-94.5318982
4169119,Dominos,1028 N Sprigg St,Cape Girardeau,MO,63701,37.3067825,-89.5247581
4169110,Dominos,11933 Olive Blvd,Creve Coeur,MO,63141,38.6608855,-90.422618
4169131,Dominos,612 Eastern Blvd,Essex,MO,63846,36.8125531,-89.8614765
4169099,Dominos,201 East College,Fredericktown,MO,63645,37.5597754,-90.2940069
4169091,Dominos,1717 Christy Dr.,Jefferson City,MO,65101,38.5767017,-92.1735164
4169041,Dominos,430 W Kearney St,Springfield,MO,65803,37.2649305,-93.2966013
4169030,Dominos,2181 Droste Road,St Charles,MO,63301,38.8405221,-90.4691097
4169033,Dominos,5421 Chippewa St,St. Louis,MO,63109,38.5844193,-90.2948797
4169616,Dominos,109 Bellevue Ave,Hammonton,NJ,8037,39.6497041,-74.829745
4169534,Dominos,570 Georges Road,North Brunswick,NJ,8902,40.4525163,-74.4766712
4169662,Dominos,2115 Vista Oeste,Albuquerque,NM,87121,35.110703,-106.609991
4169649,Dominos,204A W. Broadway,Bloomfield,NM,87413,36.7420261,-107.9788059
4169873,Dominos,3563 Sheridan Dr,Amherst,NY,14226,43.0157612,-78.7989697
4169823,Dominos,517 Larkfield Rd,East Northport,NY,11731,40.8767647,-73.3245613
4169808,Dominos,136 Woodbury Rd.,Hicksville,NY,11801,40.772226,-73.517846
4169764,Dominos,592 Columbus Ave,New York,NY,10024,40.7882473,-73.9709085
4169753,Dominos,12 Clinton Plaza,Oneonta,NY,13820,42.4528571,-75.0637746
4169420,Dominos,132 East Main St,Ahoskie,NC,27910,36.2868223,-76.9846808
4169347,Dominos,2208c Fleming Rd,Greensboro,NC,27410,36.127028,-79.8856824
4169328,Dominos,112 John Earl St,Hillsborough,NC,27278,36.0754183,-79.0997347
4169309,Dominos,3779 Hwy 8 South,Lexington,NC,27292,35.8240265,-80.2533838
4170101,Dominos,6309 Kenwood Ave,Baltimore,OH,43105,39.8453418,-82.6007185
4170044,Dominos,10803 Lorain Ave,Cleveland,OH,44111,41.45226,-81.7841703
4170039,Dominos,6144 E. Main St.,Columbus,OH,43213,39.955746,-82.828739
4170035,Dominos,226 Broad Street,Conneaut,OH,44030,41.9539666,-80.5543451
4170001,Dominos,6780 Goshen Road,Goshen,OH,45122,39.234826,-84.1224036
4169952,Dominos,81 E Main Street,Norwalk,OH,44857,41.2425531,-82.6157331
4169948,Dominos,25 E.Main Street,Orwell,OH,44076,41.5350551,-80.8681437
4169921,Dominos,14300 Pearl Road,Strongsville,OH,44136,41.3132427,-81.8103984
4169917,Dominos,4 E State Street,Trenton,OH,45067,39.4808905,-84.4577222
4169900,Dominos,215 S Myrtle Ave,Willard,OH,44890,41.0531109,-82.7262906
4170150,Dominos,908 Arlington St,Ada,OK,74820,34.7817012,-96.664931
4170131,Dominos,1337 E. Hwy. 152,Mustang,OK,73064,35.384226,-97.7244867
4170190,Dominos,2212 Island Ave.,La Grande,OR,97850,45.3245771,-118.0877188
4170356,Dominos,107 W Ridge Pike,Conshohocken,PA,19428,40.0792766,-75.3015714
4170351,Dominos,2825 Carlisle Rd,Dover,PA,17315,40.0332631,-76.8789753
4170314,Dominos,903 Nissley Road,Lancaster,PA,17602,40.0378755,-76.3055144
4170282,Dominos,1578 Main Street,Peckville,PA,18452,41.4856461,-75.5887989
4170263,Dominos,799 State Street,Pottstown,PA,19464,40.2453741,-75.6496302
4170409,Dominos,739 Hartford Ave,Providence,RI,2909,41.8168512,-71.4664927
4170484,Dominos,500 Pamplico Hwy,Florence,SC,29506,34.1954331,-79.7625625
4170436,Dominos,2701 Woodruff Rd,Simpsonville,SC,29681,34.7370639,-82.2542834
4170422,Dominos,207 N Hampton St,Westminster,SC,29693,34.6648197,-83.0965425
4170649,Dominos,404 N Jackson St,Athens,TN,37303,35.4428512,-84.5929898
4170667,Dominos,4155 Ringgold Rd,Chattanooga,TN,37402,35.04563,-85.30968
4170613,Dominos,8530 Hixson Pike,Hixson,TN,37343,35.137265,-85.2368219
4170603,Dominos,714 W. Center St,Kingsport,TN,37660,36.548434,-82.5618186
4170656,Dominos,9409 Westport Rd,Louisville,TN,37777,35.8217479,-84.0479643
4170567,Dominos,118 N Baird Lane,Murfreesboro,TN,37130,35.8456213,-86.39027
4170548,Dominos,3504 Dayton Blvd,Red Bank,TN,37415,35.1122945,-85.2941251
4171085,Dominos,1931 E Oltorf St,Austin,TX,78741,30.2259488,-97.7145152
4171066,Dominos,2817 Brown Trail,Bedford,TX,76021,32.8524487,-97.1599313
4171141,Dominos,2236 N Center St,Bonham,TX,75418,33.6012361,-96.175933
4171040,Dominos,3104 Texas Ave S,College Station,TX,77845,30.5702379,-96.3232112
4171033,Dominos,6601 Everhart Rd,Corpus Christi,TX,78413,27.6856656,-97.4110988
4170996,Dominos,3907 Dyer Street,El Paso,TX,79930,31.8079829,-106.470036
4170898,Dominos,3209 Houston Ave,Houston,TX,77009,29.7873695,-95.3684977
4170929,Dominos,4558 State Hwy 6,Houston,TX,77084,29.8296506,-95.6668306
4170884,Dominos,3319 Walnut Hill,Irving,TX,75038,32.8656631,-96.9909121
4170864,Dominos,9702 Spencer Hwy,La Porte,TX,77571,29.6657838,-95.0193728
4170785,Dominos,23780 A Loop 494,Porter,TX,77365,30.1219527,-95.2893433
4170775,Dominos,1224 N. Hwy. 377,Roanoke,TX,76262,33.0040126,-97.2258483
4170770,Dominos,1920 Sam Bass Rd,Round Rock,TX,78681,30.5184228,-97.7090854
4170759,Dominos,25291 Ih 10 West,San Antonio,TX,78257,29.6630158,-98.6288692
4170699,Dominos,5000 Main Street,The Colony,TX,75056,33.0806083,-96.8928309
4170678,Dominos,3148 Fm 528 Road,Webster,TX,77598,29.5384263,-95.1481694
4171319,Dominos,1137 Millmont St,Charlottesville,VA,22903,38.0293059,-78.4766781
4171304,Dominos,200 Market Drive,Emporia,VA,23847,36.6859829,-77.5424809
4171288,Dominos,11442 W Broad St,Glen Allen,VA,23060,37.665978,-77.5063739
4171254,Dominos,1201 London Blvd,Portsmouth,VA,23704,36.8267079,-76.3125089
4171238,Dominos,25 Williamson Rd,Roanoke,VA,24011,37.2705776,-79.9409555
4171221,Dominos,220 Elizabeth Dr,Stephens City,VA,22655,39.0834398,-78.2180567
4171434,Dominos,462 228th Ave NE,Sammamish,WA,98074,47.6211532,-122.0471292
4171402,Dominos,1903 S. 3rd Ave.,Union Gap,WA,98903,46.5573492,-120.4750638
4171397,Dominos,1723 NE Andresen,Vancouver,WA,98661,45.6405414,-122.6204002
4171540,Dominos,719 W. Wisconsin,Milwaukee,WI,53233,43.0349801,-87.9383822
4171521,Dominos,3743 Douglas Ave,Racine,WI,53402,42.8139633,-87.8255007
4167538,Dominos,132 Broadkill Rd.,Milton,DE,19968,38.7776124,-75.3099136
4168792,Dominos,788 Forest Avenue,Portland,ME,4103,43.6754295,-70.2915428
4169478,Dominos,202 North Main St,Concord,NH,3301,43.2086343,-71.5486562
4169471,Dominos,212 Lowell Street,Manchester,NH,3104,43.0088559,-71.4477469
4166731,Dominos,1715 Hwy 78 Ste C,Dora,AL,35062,33.728717,-87.0902772
4166703,Dominos,8800 Highway 72 W,Madison,AL,35758,34.6635585,-86.7869118
4166827,Dominos,11445 E Via Linda,Scottsdale,AZ,85259,33.5910441,-111.7972384
4166818,Dominos,930 W Broadway Rd,Tempe,AZ,85282,33.3897576,-111.9343636
4167358,Dominos,27131 Aliso Creek,Aliso Viejo,CA,92656,33.575,-117.725556
4167346,Dominos,510 E Bellevue Rd,Atwater,CA,95301,37.3477174,-120.609084
4167334,Dominos,7021 Atlantic Ave,Bell,CA,90201,33.9752163,-118.1874523
4167298,Dominos,12154 Central Ave,Chino,CA,91710,34.0120229,-117.6786847
4167296,Dominos,943 Otay Lakes Rd,Chula Vista,CA,91910,32.6400541,-117.0841955
4167235,Dominos,12911 Chapman Ave,Garden Grove,CA,92840,33.7876938,-117.9336874
4167372,Dominos,901 S La Brea Ave,Inglewood,CA,90301,33.9526866,-118.3668015
4167201,Dominos,309 N Harbor Road,La Habra,CA,90631,33.9319578,-117.9461734
4167177,Dominos,1158 E 7th Street,Long Beach,CA,90813,33.7749297,-118.1767013
4167139,Dominos,4041 Alhambra Ave,Martinez,CA,94553,38.0193657,-122.1341321
4167130,Dominos,9885 Central Ave.,Montclair,CA,91763,34.0775104,-117.6897776
4167080,Dominos,15245 Roscoe Blvd,Panorama City,CA,91402,34.227617,-118.442425
4166996,Dominos,1001 Las Tunas Dr,San Gabriel,CA,91776,34.1036903,-118.0860264
4166977,Dominos,1315 W Warner Ave,Santa Ana,CA,92704,33.7246333,-117.9073244
4166970,Dominos,1865 Lincoln Blvd,Santa Monica,CA,90404,34.02875,-118.4717975
4166968,Dominos,1561 Farmers Lane,Santa Rosa,CA,95405,38.4276518,-122.7500599
4166954,Dominos,402 E Charter Way,Stockton,CA,95206,37.9372806,-121.280113
4166942,Dominos,9443 Las Tunas Dr,Temple City,CA,91780,34.1061197,-118.0650974
4166920,Dominos,9410 Telephone Rd,Ventura,CA,93004,34.2765778,-119.1681373
4167445,Dominos,1753 S 8th Street,Colorado Springs,CO,80906,38.7665005,-104.8804893
4167435,Dominos,1280 Grant Street,Denver,CO,80229,39.8620871,-104.9828044
4167402,Dominos,2585 S. Lewis Way,Lakewood,CO,80228,39.664958,-105.1303651
4167392,Dominos,956 Cherry Street,Louisville,CO,80026,39.9960635,-105.0908147
4167385,Dominos,10471 S Parker Rd,Parker,CO,80134,39.526319,-104.7673222
4167851,Dominos,450092 SR 200 #7B,Callahan,FL,32011,30.5677987,-81.8241199
4167886,Dominos,821 N Nova Rd # 3,Daytona Beach,FL,32117,29.2209563,-81.0472273
4167825,Dominos,210 N Federal Hwy,Deerfield Beach,FL,33441,26.3165855,-80.0886627
4167806,Dominos,9270 College Pkwy,Fort Myers,FL,33919,26.5545224,-81.898908
4167761,Dominos,870 Cassat Avenue,Jacksonville,FL,32205,30.3120412,-81.7310483
4167755,Dominos,3378 Southport Rd,Kissimmee,FL,34759,28.065067,-81.4967865
4167742,Dominos,339 S. Bartow Rd.,Lakeland,FL,33801,28.0345324,-81.9365341
4167740,Dominos,12613 Ulmerton Rd,Largo,FL,33774,27.8847538,-82.8263615
4167683,Dominos,750 S Bluford Ave,Ocoee,FL,34761,28.5691677,-81.5439619
4167663,Dominos,12715 Pegasus DR.,Orlando,FL,32816,28.6019313,-81.2005485
4167877,Dominos,123 Cashmere Blvd,PORT SAINT LUCIE,FL,34953,27.2730492,-80.3582261
4167614,Dominos,104 Rio Villa Dr.,Punta Gorda,FL,33950,26.9297836,-82.0453664
4167605,Dominos,6511 4th Street N,Saint Petersburg,FL,33703,27.8156609,-82.6213311
4167604,Dominos,1910 S French Ave,Sanford,FL,32771,28.8137178,-81.273189
4168029,Dominos,7529 Roswell Road,Atlanta,GA,30342,33.9070541,-84.3790933
4168009,Dominos,430 Red Bud Rd Ne,Calhoun,GA,30701,34.5120321,-84.9456122
4167950,Dominos,4682 Forsyth Road,Macon,GA,31210,32.8633017,-83.7278506
4167922,Dominos,1600 Frederica Rd,Saint Simons Island,GA,31522,31.1595905,-81.3885517
4167920,Dominos,6130 Roswell Road,Sandy Springs,GA,30328,33.9216234,-84.3791384
4167912,Dominos,504 Hayes Lake Rd,Statham,GA,30666,33.9651127,-83.596555
4167893,Dominos,2278-B Moody Road,Warner Robbins,GA,31088,32.590481,-83.624201
4168267,Dominos,634 Northwest Hwy,Cary,IL,60013,42.2175411,-88.2540676
4168256,Dominos,5410 W. Devon Ave,Chicago,IL,60646,41.9975415,-87.7642797
4168229,Dominos,5531 Belmont Road,Downers Grove,IL,60515,41.7853237,-88.0370324
4168215,Dominos,3310 Godfrey Road,Godfrey,IL,62035,38.9556031,-90.1867764
4168195,Dominos,18401 Burnham Ave,Lansing,IL,60438,41.5647575,-87.538931
4168178,Dominos,1983 Brookdale Rd,Naperville,IL,60653,41.820267,-87.603826
4168176,Dominos,305 W Beaufort St,Normal,IL,61761,40.5142026,-88.9906312
4168172,Dominos,9022 S Cicero Ave,Oak Lawn,IL,60453,41.7282817,-87.7415776
4168171,Dominos,329 W Chicago Ave,Oak Park,IL,60304,41.8734757,-87.7812524
4168165,Dominos,425 N Western Ave,Peoria,IL,61606,40.6974655,-89.6133926
4168366,Dominos,2620 South Walnut,Bloomington,IN,47403,39.165325,-86.526386
4168361,Dominos,1007 Eastern Blvd,Clarksville,IN,47129,38.2967362,-85.759963
4168303,Dominos,502 S Main Street,Salem,IN,47167,38.6056131,-86.101089
4168103,Dominos,117 N Ankeny Blvd,Ankeny,IA,50021,41.7317884,-93.6001278
4168079,Dominos,301 NORTH WAPELLO,Ottumwa,IA,52501,41.0160293,-92.4083022
4168388,Dominos,15003 Metcalf Ave,Overland Park,KS,66223,38.8630091,-94.6760395
4168427,Dominos,2520 Bardstown Rd,Louisville,KY,40205,38.2227425,-85.6664519
4168429,Dominos,5400 Preston Hwy.,Louisville,KY,40213,38.1804513,-85.7102437
4168417,Dominos,3333 Frederica St,Owensboro,KY,42301,37.7719074,-87.1111676
4168472,Dominos,651 S Wilson Road,Radcliff,KY,40160,37.8272339,-85.9496784
4168731,Dominos,2275 Hanover Pike,Hampstead,MD,21074,39.6048253,-76.8499774
4168718,Dominos,1603 Ridgeside Dr,Mount Airy,MD,21771,39.3762145,-77.154704
4168709,Dominos,124 Newtowne Blvd,Pocomoke City,MD,21851,38.0756773,-75.5679805
4168708,Dominos,12962 Travilah Rd,Potomac,MD,20854,39.0640787,-77.2692941
4168603,Dominos,100 Market Street,Rockland,MA,2370,42.1306563,-70.9161551
4168888,Dominos,1113 West Beecher,Adrian,MI,49221,41.8937674,-84.058258
4168873,Dominos,13250 Gratiot Ave,Detroit,MI,48205,42.4165977,-83.1797786
4168870,Dominos,143 N Harrison Rd,East Lansing,MI,48823,42.7343725,-84.4737018
4168864,Dominos,5040 W Pierson Rd,Flint,MI,48504,43.0528038,-83.7517851
4168857,Dominos,619 Leonard St NW,Grand Rapids,MI,49504,42.9880623,-85.7153754
4168891,Dominos,21697 21 Mile Rd.,Macomb Twp.,MI,48044,42.6437787,-82.8966296
4168836,Dominos,35346 23 Mile Rd.,New Baltimore,MI,48047,42.676153,-82.7476674
4168835,Dominos,40420 5 Mile Road,Northville Twp,MI,48170,42.4169178,-83.517682
4168813,Dominos,3843 Rochester Rd,Troy,MI,48083,42.5496035,-83.1112798
4169000,Dominos,1524 125th Ave NE,Blaine,MN,55449,45.1687174,-93.234835
4169010,Dominos,5507d Ritchie Hwy,Brooklyn Park,MN,55443,45.0941315,-93.3563405
4168971,Dominos,132 N Lake Street,Forest Lake,MN,55025,45.2788561,-92.9852183
4168964,Dominos,14531 Forest Blvd,Hugo,MN,55038,45.159964,-92.9933412
4168941,Dominos,1113 Hennepin Ave,Minneapolis,MN,55403,44.9691279,-93.2878982
4168942,Dominos,2441 Hennepin Ave,Minneapolis,MN,55405,44.9685475,-93.3080409
4168952,Dominos,7082 Amundson Ave,Minneapolis,MN,55439,44.8751301,-93.3620129
4168939,Dominos,112 W Broadway St,Monticello,MN,55362,45.3055201,-93.7941378
4168924,Dominos,4995 160th Street,Prior Lake,MN,55372,44.7132969,-93.4227274
4168923,Dominos,6014 167th Ave Nw,Ramsey,MN,55303,45.273693,-93.430232
4169150,Dominos,8859 Goodman Road,Olive Branch,MS,38654,34.9617604,-89.8295315
4169112,Dominos,1621A Towne Drive,Columbia,MO,65202,38.9517053,-92.3340724
4169050,Dominos,5201 S Grand Blvd,Saint Louis,MO,63111,38.5635304,-90.2479232
4169038,Dominos,3107 S Grand Blvd,St. Louis,MO,63103,38.6270025,-90.1994042
4169031,Dominos,667 Big Bend Road,St. Louis,MO,63021,38.557323,-90.5352356
4169036,Dominos,9301 Gravois Road,St. Louis,MO,63123,38.5527373,-90.3607137
4169012,Dominos,500 W Pearce Blvd,Wentzville,MO,63385,38.8223931,-90.8616203
4169588,Dominos,13 Washington Ave,Dumont,NJ,7628,40.9406541,-73.9968051
4169578,Dominos,415 Route 9 South,Englishtown,NJ,7726,40.3340804,-74.3232995
4169530,Dominos,2500 Us Highway 9,Old Bridge,NJ,8857,40.4128551,-74.307282
4169523,Dominos,94 Wanaque Avenue,Pompton Lakes,NJ,7442,41.0108875,-74.2866904
4169667,Dominos,2085 N Jones Blvd,Las Vegas,NM,87701,35.5942137,-105.2227978
4169825,Dominos,5855 Transit Road,East Amherst,NY,14051,43.0288001,-78.6909263
4169883,Dominos,524 Beach 20th St,Far Rockaway,NY,11691,40.6004643,-73.752093
4169881,Dominos,1044 Clinton Ave.,Irvington,NY,10533,41.0391,-73.867
4169774,Dominos,1396 First Avenue,New York,NY,10007,40.7127837,-74.0059413
4169767,Dominos,200 E 89th Street,New York,NY,10028,40.7768622,-73.9433324
4169743,Dominos,95-28 Queens Blvd,Rego Park,NY,11374,40.7255722,-73.8624893
4169405,Dominos,1515 Holcomb Blvd,Camp Lejeune,NC,28547,34.5928144,-77.3423982
4169432,Dominos,104 N Hughes Blvd,Elizabeth City,NC,27909,36.3019334,-76.2331197
4169359,Dominos,417 W Haggard Ave,Elon College,NC,27244,36.0982762,-79.5115433
4169349,Dominos,921 S Main Street,GRAHAM,NC,27253,36.0522706,-79.4003619
4169341,Dominos,3806c N Church St,Greensboro,NC,27405,36.1434969,-79.7683759
4169300,Dominos,197 W Plaza Drive,Mooresville,NC,28115,35.5848596,-80.8100724
4169273,Dominos,3677 New Bern Ave,Raleigh,NC,27610,35.7991096,-78.5799362
4169269,Dominos,3948 Western Blvd,Raleigh,NC,27606,35.7418297,-78.713608
4169235,Dominos,1004 Western Blvd,Tarboro,NC,27886,35.8968236,-77.5358049
4169225,Dominos,2821 Wendell Blvd,Wendell,NC,27591,35.780987,-78.3697213
4169220,Dominos,139 W Main Street,Williamston,NC,27892,35.8546039,-77.0555114
4170062,Dominos,5892 Fulton Dr NW,Canton,OH,44718,40.8540649,-81.460856
4170045,Dominos,502 W National Rd,Clayton,OH,45315,39.8767864,-84.3117702
4169939,Dominos,9685 Sawmill Road,Powell,OH,43065,40.1578402,-83.0751869
4169909,Dominos,60 Washington Sq.,Washington Court House,OH,43160,39.5304635,-83.4327277
4169899,Dominos,38033 Euclid Ave.,Willoughby,OH,44094,41.6385081,-81.4135254
4170145,Dominos,2216 W Houston St,Broken Arrow,OK,74012,36.0463406,-95.8210469
4170140,Dominos,1436 W University,Durant,OK,74701,33.9924186,-96.3971233
4170187,Dominos,10586 SE 32nd Ave,Milwaukie,OR,97222,45.4462305,-122.6392606
4170177,Dominos,10200 Sw Park Way,Portland,OR,97225,45.5064511,-122.7756216
4170329,Dominos,1012 Baltimore St,Hanover,PA,17331,39.8006553,-76.9830358
4170315,Dominos,700 Market Street,Kingston,PA,18704,44.2311717,-76.4859544
4170312,Dominos,1611 Manheim Pike,Lancaster,PA,17601,40.0720931,-76.3058328
4170311,Dominos,804 W Main Street,Lansdale,PA,19446,40.2414952,-75.2837862
4170285,Dominos,213 N Main Street,Old Forge,PA,18518,41.3711906,-75.7349143
4170268,Dominos,253 Schuylkill Rd,Phoenixville,PA,19460,40.1303822,-75.5149128
4170390,Dominos,200 Kennedy Blvd.,Pittston,PA,18640,41.3259134,-75.7893604
4170481,Dominos,190 N Main Street,Gaston,SC,29053,33.8213336,-81.0980783
4170477,Dominos,2616 Anderson Rd.,Greenville,SC,29611,34.8268335,-82.4536115
4170610,Dominos,169 Stonebrook PL,Jackson,TN,38305,35.6145169,-88.8139469
4170571,Dominos,7979 Hwy 51 North,Millington,TN,38053,35.3414744,-89.8973084
4170653,Dominos,13015 Abercorn St,Savannah,TN,38372,35.2248034,-88.2492037
4171106,Dominos,2609 Wolflin Ave.,Amarillo,TX,79109,35.1633874,-101.900579
4171083,Dominos,900 R R 620 South,Austin,TX,78734,30.3666665,-97.9483898
4171092,Dominos,9616 N Lamar #187,Austin,TX,78753,30.3670755,-97.6962636
4171140,Dominos,2380 Texas Avenue,Bridge City,TX,77611,30.0357336,-93.8235392
4171005,Dominos,1610 Teasley Lane,Denton,TX,76205,33.1945853,-97.12436
4170994,Dominos,10048 Dyer Street,El Paso,TX,79924,31.8964712,-106.4288088
4170978,Dominos,3810 East Belknap,Fort Worth,TX,76111,32.7816615,-97.3030592
4171133,Dominos,1991 Fm 1960 Rd W,Houston,TX,77090,30.0095987,-95.4589481
4170895,Dominos,3507 Elgin Street,Houston,TX,77004,29.7199489,-95.3422334
4170941,Dominos,9428C Cullen Blvd,Houston,TX,77051,29.6543799,-95.3561241
4170870,Dominos,309 E Kleberg Ave,Kingsville,TX,78363,27.5158689,-97.856109
4170860,Dominos,1305 N Blue Grove,Lancaster,TX,75146,32.5920798,-96.7561082
4171132,Dominos,1934 Hwy 190 West,Livingston,TX,77351,30.748445,-95.018322
4171130,Dominos,3000 Airways Blvd,Memphis,TX,79245,34.7247758,-100.5340144
4171127,Dominos,550 S Highland St,Memphis,TX,79245,34.7247758,-100.5340144
4170803,Dominos,3112b Spencer Hwy,Pasadena,TX,77504,29.6526666,-95.1953554
4170801,Dominos,9430 Broadway St.,Pearland,TX,77584,29.5321026,-95.3207069
4171120,Dominos,2323 SE 182nd Ave,Portland,TX,78374,27.8772463,-97.3238805
4170768,Dominos,111 W Main Street,Round Rock,TX,78664,30.5041381,-97.6602365
4170720,Dominos,5107 Collage Ave.,Snyder,TX,79549,32.7178862,-100.9176184
4170719,Dominos,2312 Houston Blvd,South Houston,TX,77587,29.663008,-95.2354902
4170700,Dominos,8530 Highway 1765,Texas City,TX,77590,29.383845,-94.9027002
4170683,Dominos,602 Redwater Road,Wake Village,TX,75501,33.4267911,-94.1063014
4170681,Dominos,6628 Rufe Snow Rd,Watauga,TX,76148,32.8579056,-97.2547371
4171310,Dominos,700 MCKINNEY BLVD,Colonial Beach,VA,22443,38.2545737,-76.963583
4171279,Dominos,23 S Jefferson St,Lexington,VA,24450,37.7849986,-79.4436297
4171365,Dominos,828 Lane Allen Rd,Lexington,VA,24450,37.7850326,-79.4287317
4171363,Dominos,10169 Hastings Dr,Manassas,VA,20110,38.7334579,-77.4776567
4171271,Dominos,13448 Dumfries Rd,Manassas,VA,20112,38.6518497,-77.4357739
4171253,Dominos,2616 Airline Blvd,Portsmouth,VA,23701,36.8130915,-76.3695167
4171354,Dominos,3440 Anderson Hwy,Powhatan,VA,23139,37.558914,-77.882456
4171233,Dominos,1933 S Church St.,Smithfield,VA,23430,36.9823709,-76.6310662
4171222,Dominos,283 N Central Ave,Staunton,VA,24401,38.149576,-79.0716958
4171493,Dominos,15100c Se 38th St,Bellevue,WA,98004,47.610377,-122.2006786
4171490,Dominos,1301 E Sunset Dr.,Bellingham,WA,98226,48.74908,-122.4781473
4171483,Dominos,1241 Harrison Ave,Centralia,WA,98351,47.2013207,-122.7701447
4171447,Dominos,3225 Harrison Ave,Olympia,WA,98502,47.0378741,-122.9006951
4171438,Dominos,16260 Redmond Way,Redmond,WA,98052,47.6740243,-122.1220361
4171412,Dominos,5525 N Alberta St,Spokane,WA,99205,47.7000703,-117.4516702
4171408,Dominos,12221 Pacific Ave,Tacoma,WA,98444,47.1547274,-122.4554287
4171405,Dominos,2606 N Stevens St,Tacoma,WA,98407,47.2811139,-122.4960488
4171395,Dominos,4001 Kennedy Road,W. Richland,WA,99353,46.2797098,-119.346635
4171518,Dominos,118 N Main Street,River Falls,WI,54022,44.8613563,-92.6238082
4167540,Dominos,105 Aerenson Drive,Milford,DE,19963,38.9126129,-75.4279748
4167532,Dominos,230 E Glenwood Ave,Smyrna,DE,19977,39.2998339,-75.6046494
4169465,Dominos,599 Lafayette Road,Portsmouth,NH,3801,43.0717552,-70.7625532
4169464,Dominos,300 North Main st.,Rochester,Nh,3867,43.3104064,-70.9903438
4170527,Dominos,25 Market Street E,Huron,SD,57350,44.3633173,-98.2142572
4171639,Dominos,1188 W Main Street,Riverton,WY,82501,43.024959,-108.380104
4171637,Dominos,1538 N Main Street,Sheridan,WY,82801,44.7971939,-106.9561791
4166741,Dominos,726 23rd St. South,Birmingham,AL,35233,33.5019417,-86.8047264
4166690,Dominos,350 Mcfarland Blvd,Northport,AL,35476,33.2300079,-87.5939487
4166665,Dominos,2304 Columbiana Rd,Vestavia Hills,AL,35216,33.4296358,-86.8124075
4166894,Dominos,10826 E Apache Trl,Apache Junction,AZ,85220,33.4103354,-111.5508737
4166866,Dominos,6920 E Baseline Rd,Mesa,AZ,85208,33.3996663,-111.6332808
4166833,Dominos,2819 N Central Ave,Phoenix,AZ,85004,33.4528292,-112.0685027
4166802,Dominos,8486 East Broadway,Tucson,AZ,85710,32.2165669,-110.8195292
4166783,Dominos,1065 N Garland Ave,Fayetteville,AR,72701,36.0625795,-94.1574263
4166774,Dominos,2508 Stadium Blvd.,Jonesboro,AR,72401,35.8139122,-90.6652084
4166770,Dominos,8822 Stagecoach Rd,Little Rock,AR,72210,34.7151821,-92.5098914
4167351,Dominos,2745 Hillcrest Ave,Antioch,CA,94509,38.0049214,-121.805789
4167348,Dominos,12210 Artesia Blvd,Artesia,CA,90701,33.8658484,-118.0831212
4167333,Dominos,9353 Alondra Blvd.,Bellflower,CA,90706,33.889119,-118.1252758
4167277,Dominos,826 N Glendora Ave,Covina,CA,91724,34.0858034,-117.8604472
4167252,Dominos,120 E. Lincoln Ave,Escondido,CA,92025,33.1192068,-117.086421
4167150,Dominos,1740 S. Hoover St.,Los Angeles,CA,90006,34.0442153,-118.2947382
4167171,Dominos,270 S Rampart Blvd,Los Angeles,CA,90057,34.0664093,-118.2782012
4167153,Dominos,3631 Crenshaw Blvd,Los Angeles,CA,90016,34.0181993,-118.3403506
4167173,Dominos,520 West Avenue 26,Los Angeles,CA,90065,34.0842586,-118.2231808
4167152,Dominos,740 S.Olive Street,Los Angeles,CA,90013,33.7369209,-118.2809132
4167144,Dominos,1934 Meridian Blvd,Mammoth Lakes,CA,93546,37.648546,-118.972079
4167117,Dominos,1036 E Broadway St,Needles,CA,92363,34.8480597,-114.6141315
4167109,Dominos,10948 Imperial Hwy,Norwalk,CA,90650,33.9080252,-118.0993085
4167104,Dominos,3807-G Main Street,Oakley,CA,94561,37.9974219,-121.7124536
4167090,Dominos,1137 S Oxnard blvd,Oxnard,CA,93033,34.1599885,-119.1274334
4167030,Dominos,3417 El Camino Ave,Sacramento,CA,95821,38.6258567,-121.3884671
4166967,Dominos,449 Stony Point Rd,Santa Rosa,CA,95401,38.4403486,-122.7446731
4166963,Dominos,4467 Van Nuys Blvd,Sherman Oaks,CA,91403,34.1423899,-118.4571974
4166956,Dominos,9321 N Thornton Rd,Stockton,CA,95209,38.0336706,-121.3465265
4166953,Dominos,11674 Ventura Blvd,Studio City,CA,91604,34.1410722,-118.3871384
4166934,Dominos,7213 Foothill Blvd,Tujunga,CA,91042,34.2489238,-118.2889125
4166922,Dominos,1017 N Ventura Ave,Ventura,CA,93003,34.274646,-119.2290316
4166905,Dominos,10807 Beverly Blvd,Whittier,CA,90601,33.9985933,-118.0548285
4167443,Dominos,330 North Wahsatch,Colorado Springs,CO,80903,38.8413423,-104.8162784
4167436,Dominos,2917 West 38th Ave,Denver,CO,80202,39.7392358,-104.990251
4167418,Dominos,401 E. Main Street,Florence,CO,81226,38.3902777,-105.1185988
4167403,Dominos,297 N. Highway 287,Lafayette,CO,80026,40.0047501,-105.1021457
4167379,Dominos,150 E Rainbow Blvd,Salida,CO,81201,38.5347193,-105.9989022
4167867,Dominos,316 Havendale Blvd,Auburndale,FL,33823,28.0652975,-81.7886906
4167831,Dominos,1049 S Ferdon Blvd,Crestview,FL,32536,30.7541808,-86.5727995
4167827,Dominos,211 N Atlantic Ave,Daytona Beach,FL,32114,29.2108147,-81.0228331
4167818,Dominos,3502 N Access Road,Englewood,FL,34224,26.9620053,-82.3525952
4167817,Dominos,3502 N Access Road,Englewood,FL,34224,26.9620053,-82.3525952
4167803,Dominos,3112 Cleveland Ave,Fort Myers,FL,33901,26.6235485,-81.8770671
4167883,Dominos,6631 Orion Dr.#109,Ft. Myers,FL,61705,40.4952236,-89.0939335
4167746,Dominos,6548 Lake Worth Rd,Lake Worth,FL,33467,26.5861576,-80.1763467
4167744,Dominos,1709 Shepherd Road,Lakeland,FL,33811,27.9852231,-82.008014
4167731,Dominos,1616-1618 Ohio Ave,Lynn Haven,FL,32444,30.2454776,-85.648261
4167690,Dominos,4800 Bayline Drive,North Fort Myers,FL,33917,26.6672935,-81.8800861
4167679,Dominos,2487 S Volusia Ave,Orange City,FL,32763,28.9488761,-81.2986741
4167880,Dominos,343 W Granada Blvd,Ormond Beach,FL,32174,29.2858129,-81.0558894
4167653,Dominos,4700 Babcock St NE,Palm Bay,FL,32905,28.0277333,-80.6219149
4167602,Dominos,8539 S Tamiami Trl,Sarasota,FL,34238,27.0869148,-82.4299574
4167562,Dominos,537 US 41 Bypass N,Venice,FL,34285,27.1072052,-82.4390134
4167548,Dominos,96118 lofton sq ct,Yulee,FL,32097,30.6359093,-81.6414443
4167949,Dominos,4437 Columbus Road,Macon,GA,31206,32.81861,-83.7277089
4168129,Dominos,10396 Fairview Ave,Boise,ID,83704,43.6320897,-116.2863998
4168116,Dominos,1701 W Cherry Lane,Meridian,ID,83642,43.5621813,-116.3938349
4168272,Dominos,358 N Schmidt Road,Bolingbrook,IL,60440,41.7189758,-88.0426686
4168289,Dominos,3336 N. Harlem Ave,Chicago,IL,60604,41.8781136,-87.6297982
4168233,Dominos,1948 E Eldorado St,Decatur,IL,62521,39.8403147,-88.9548001
4168230,Dominos,655 E Sibley Blvd.,Dolton,IL,60419,41.6389236,-87.607268
4168220,Dominos,65 S US Highway 12,Fox Lake,IL,60020,42.3940814,-88.1730427
4168216,Dominos,1410 Waukegan Road,Glenview,IL,60025,42.0723953,-87.8205864
4168210,Dominos,5650 Manchester Dr,Gurnee,IL,60031,42.352989,-87.95138
4168174,Dominos,1022 Waukegan Road,Northbrook,IL,60062,42.1164328,-87.8292805
4168157,Dominos,308 W Rollins Road,Round Lake Beach,IL,60073,42.3435897,-88.0971314
4168144,Dominos,694 N Berwick Blvd,Waukegan,IL,60085,42.3470843,-87.855796
4168141,Dominos,619 W Roosevelt Rd,Wheaton,IL,60187,41.8589379,-88.1159146
4168136,Dominos,1785 Marketview Dr,Yorkville,IL,60560,41.6261594,-88.4486533
4168351,Dominos,600 N Weinbach Ave,Evansville,IN,47711,37.9715592,-87.5710898
4168345,Dominos,1211 N Madison Ave,Greenwood,IN,46142,39.6196709,-86.1650024
4168097,Dominos,2200 159th St #100,Clive,IA,50325,44.9154566,-91.349319
4168465,Dominos,1785 Patrick Drive,Burlington,KY,41005,39.02756,-84.7241133
4168454,Dominos,90 Alexandria Pike,Fort Thomas,KY,41075,39.0750607,-84.4471633
4168432,Dominos,3900 7th Street Rd,Louisville,KY,40216,38.168195,-85.7793529
4168431,Dominos,5219 Dixie Highway,Louisville,KY,40216,38.1903228,-85.8383857
4168430,Dominos,6803 Southside Dr.,Louisville,KY,40214,38.1396979,-85.7539211
4168412,Dominos,1812 S Main Street,Paris,KY,40361,38.2097987,-84.2529869
4168484,Dominos,2170 W. Gause Blvd,Slidell,LA,70460,30.2751945,-89.7811745
4168681,Dominos,Pope Rd & Great Rd,Acton,MA,1720,36.7714538,-86.3236883
4168665,Dominos,1289 S Main Street,Brockton,MA,2301,42.0834335,-71.0183787
4168632,Dominos,775 Eastern Avenue,Malden,MA,2148,42.4274514,-71.0685959
4168613,Dominos,1023 Washington St,Norwood,MA,2062,42.1787555,-71.1923828
4168588,Dominos,790 Liberty Street,Springfield,MA,1104,42.1341459,-72.5707614
4168582,Dominos,111 Arsenal Street,Watertown,MA,2472,42.3709299,-71.1828321
4168845,Dominos,1019 E. State Road,Lansing,MI,48906,42.7842327,-84.5746243
4168847,Dominos,4800 W Saginaw Hwy,Lansing,MI,48933,42.732535,-84.5555347
4168832,Dominos,4661-B Okemos Road,Okemos,MI,48864,42.722257,-84.4274744
4169002,Dominos,1058 Enterprise Dr,Belle Plaine,MN,56011,44.6230409,-93.7684042
4168962,Dominos,6635 Cahill Avenue,Inver Grove Heights,MN,55076,44.8480218,-93.0427153
4168950,Dominos,9723 Lyndale Ave S,Minneapolis,MN,55420,44.8365032,-93.2734517
4168937,Dominos,2330 Wilshire Blvd,Mound,MN,55364,44.9280311,-93.6458708
4168936,Dominos,2548 Highway 10 Ne,Moundsview,MN,55112,45.0766457,-93.2015176
4168925,Dominos,114 Rum River Dr S,Princeton,MN,55371,45.569965,-93.5816278
4168910,Dominos,477 Saint Peter St,Saint Paul,MN,55102,44.9343827,-93.1127413
4169127,Dominos,14764 Clayton Road,Ballwin,MO,63011,38.5950532,-90.5462339
4169115,Dominos,1307 Washington St,Chillicothe,MO,64601,39.7952946,-93.5524358
4169075,Dominos,2148 Mckelvey Road,Maryland Heights,MO,63043,38.7147199,-90.4504533
4169029,Dominos,1430 N 13th Street,St. Louis,MO,63106,38.642626,-90.1942198
4169587,Dominos,325 State Route 10,East Hanover,NJ,7936,40.8135401,-74.3646122
4169582,Dominos,135 State Route 27,Edison,NJ,8820,40.5757563,-74.3548452
4169540,Dominos,1003 Bergen Street,Newark,NJ,7112,40.709331,-74.207082
4169528,Dominos,504 Van Houten Ave,Passaic,NJ,7055,40.8597746,-74.1298684
4169500,Dominos,807 S Olden Avenue,Trenton,NJ,8610,40.2162156,-74.7296791
4169659,Dominos,1127 Alameda Blvd.,Albuquerque,NM,87114,35.1944416,-106.6352667
4169663,Dominos,800 G Juan Tabo NE,Albuquerque,NM,87123,35.0498998,-106.4759262
4169629,Dominos,2415 Southern Blvd,Rio Rancho,NM,87124,35.2327544,-106.6630437
4169828,Dominos,Pike Plaza Route 6,Cortlandt Manor,NY,10567,41.2804112,-73.8714752
4169820,Dominos,108 Washington Ave,Endicott,NY,13760,42.098408,-76.0493684
4169795,Dominos,122 Baldwin Street,Johnson City,NY,13790,42.1156308,-75.9588092
4169755,Dominos,2900 Long Beach Rd,Oceanside,NY,11572,40.6387141,-73.6401296
4169750,Dominos,179 Medford Avenue,Patchogue,NY,11772,40.7659783,-73.019343
4169734,Dominos,113 Erie Blvd West,Rome,NY,13440,43.2128473,-75.4557303
4169411,Dominos,107 N Honeycutt St,Benson,NC,27504,35.3821067,-78.548621
4169379,Dominos,304 Northeast Blvd,Clinton,NC,28328,34.9653665,-78.3496848
4169351,Dominos,735 US HWY 70 East,Garner,NC,27529,35.7112642,-78.6141709
4169430,Dominos,900-B N Spence Ave,Goldsboro,NC,27530,35.3848841,-77.9927651
4169346,Dominos,4411 High Point Rd,Greensboro,NC,27407,36.0175027,-79.8632834
4169326,Dominos,100 Springstone Dr,Holly Springs,NC,27540,35.6512655,-78.8336218
4169320,Dominos,114A West Main St.,Jamestown,NC,27282,35.9927795,-79.9466106
4169266,Dominos,2658 S Saunders St,Raleigh,NC,27603,35.745672,-78.6493463
4169210,Dominos,7821 N. Point Blvd,Winston-Salem,NC,27106,36.1412574,-80.2756418
4170012,Dominos,1258 Kauffman Road,Fairborn,OH,45324,39.8208925,-84.0193789
4170093,Dominos,998-A NC HWY 150 W,Summerfield,OH,43788,39.7967389,-81.3359494
4169903,Dominos,7357 State Route 3,Westerville,OH,43082,40.1261743,-82.9290696
4170147,Dominos,4100 SE Adams Road,Bartlesville,OK,74006,36.7473114,-95.9808179
4170128,Dominos,7743 W Hefner Road,Oklahoma City,OK,73162,35.5796385,-97.6562281
4170114,Dominos,1524 N Boomer Road,Stillwater,OK,74075,36.1398612,-97.063803
4170194,Dominos,115 E Highland Ave,Hermiston,OR,97838,45.8404101,-119.2894605
4170361,Dominos,1121 Northern Blvd,Clarks Summit,PA,18411,41.4886892,-75.7085248
4170338,Dominos,108 N Reading Road,Ephrata,PA,17522,40.1798165,-76.1788391
4170304,Dominos,733 S Broad Street,Lititz,PA,17543,40.1573169,-76.3069014
4170299,Dominos,6391 Carlisle Pike,Mechanicsburg,PA,17050,40.2142565,-77.0085876
4170274,Dominos,8914 Frankford Ave,Philadelphia,PA,19136,40.035837,-75.0202247
4170228,Dominos,293 East Street Rd,Warminster,PA,18974,40.1950577,-75.0889011
4170216,Dominos,350 S Richland Ave,York,PA,17404,40.005718,-76.7682775
4170492,Dominos,6315 N Main Street,Columbia,SC,29203,34.0012162,-81.0270492
4170475,Dominos,474-A Bypass 72 NW,Greenwood,SC,29649,34.2453437,-82.1387233
4170513,Dominos,1216 N Main Street,Summerville,SC,29483,33.0185039,-80.1756481
4170641,Dominos,8644 E Brainerd Rd,Chattanooga,TN,37421,35.041539,-85.1583064
4170663,Dominos,5730 Highway 58 #C,Harrison,TN,37341,35.111505,-85.135992
4170604,Dominos,3077 Fort Henry Dr,Kingsport,TN,37664,36.5147965,-82.5194049
4170565,Dominos,1515 Warrior Drive,Murfreesboro,TN,37128,35.81539,-86.410169
4171095,Dominos,1916 Baird Farm Rd,Arlington,TX,76011,32.7650605,-97.0857632
4171078,Dominos,1900 Guadalupe Ave,Austin,TX,78705,30.2961708,-97.7389543
4171139,Dominos,5600 Highway 431 S,Brownsboro,TX,75756,32.3023706,-95.6135715
4171030,Dominos,2749 South Staples,Corpus Christi,TX,78404,27.767874,-97.4002872
4171027,Dominos,12000 Hwy 380 #110,Crossroads,TX,76227,44.273397,-120.7932249
4171011,Dominos,11500 Jupiter Road,Dallas,TX,75218,32.8506625,-96.6827133
4171134,Dominos,1230 A Rose Street,Elgin,TX,78621,30.3496528,-97.3702735
4170966,Dominos,2424 Seawall Blvd.,Galveston,TX,77550,29.288634,-94.7900003
4170923,Dominos,10766 S Gessner Dr,Houston,TX,77071,29.6451476,-95.5249863
4170924,Dominos,12318 Beechnut Rd.,Houston,TX,77072,29.6994351,-95.5960401
4170909,Dominos,5361 W Bellfort St,Houston,TX,77035,29.6464527,-95.4935119
4170915,Dominos,5757 Westheimer Rd,Houston,TX,77057,29.7503969,-95.4935119
4170876,Dominos,807 Keller Parkway,Keller,TX,76248,32.9259646,-97.2329255
4170858,Dominos,3911 Loop 20 Ste 2,Laredo,TX,78043,27.5455097,-99.2563859
4170842,Dominos,5407 4th St Unit A,Lubbock,TX,79416,33.6036178,-101.9690458
4170825,Dominos,4519 N Garfield St,Midland,TX,79705,32.0245282,-102.108632
4170813,Dominos,1404 Nederland Ave,Nederland,TX,77627,29.968867,-93.9850109
4170702,Dominos,2730 Richmond Road,Texarkana,TX,75503,33.425125,-94.0476882
4170693,Dominos,2921 Pat Booker Rd,Universal City,TX,78148,29.5480071,-98.2911235
4171150,Dominos,1 West Main Street,Tremonton,UT,84337,41.7056732,-112.165881
4171378,Dominos,650 US 31 W Bypass,Bowling Green,VA,22427,38.0495789,-77.3466468
4171293,Dominos,840 Warrenton Road,Fredericksburg,VA,22406,38.3836812,-77.5390127
4171242,Dominos,111 N Belvidere St,Richmond,VA,23220,37.5476,-77.4479938
4171236,Dominos,130 Cedar Grove Rd,Ruckersville,VA,22968,38.2331915,-78.3688833
4171352,Dominos,540 E Constance RD,Suffolk,VA,23434,36.7282054,-76.5835621
4171199,Dominos,724 Berryville Ave,Winchester,VA,22601,39.1856597,-78.1633341
4171349,Dominos,1395 Old Bridge Rd,Woodbridge,VA,22192,38.682399,-77.295037
4171477,Dominos,7601 Evergreen Way,Everett,WA,98203,47.9417388,-122.2334664
4171449,Dominos,1600 E College Way,Mount Vernon,WA,98273,39.6874741,-104.9405258
4171437,Dominos,16840 116th Ave SE,Renton,WA,98058,47.454,-122.1101712
4171430,Dominos,302 North 125th St,Seattle,WA,98133,47.719577,-122.347084
4171389,Dominos,10501 NE Creek St.,Yelm,WA,98597,46.9420431,-122.6059582
4171579,Dominos,206 W. Calumet St.,Appleton,WI,54915,44.2455449,-88.3530747
4171573,Dominos,17305 W Capitol Dr,Brookfield,WI,53045,43.0532825,-88.1584129
4171588,Dominos,3400 C Mendon Road,Cumberland,WI,54829,45.5321764,-92.019346
4171557,Dominos,509 Cottonwood Ave,Hartland,WI,53029,43.105008,-88.3420398
4167547,Dominos,797 Pulaski Highway,Bear,DE,19701,39.6292788,-75.6582628
4169450,Dominos,904 Riverside Blvd.,Norfolk,NE,68701,42.0415851,-97.411928
4166728,Dominos,1506 Montclair Road,Eastwood,AL,35210,33.5265792,-86.7139704
4166701,Dominos,12290 Highway 231 N,Meridianville,AL,35759,34.8514782,-86.5722154
4166825,Dominos,7908 E Chaparral Rd,Scottsdale,AZ,85250,33.5243639,-111.8985922
4166776,Dominos,2100 Albert Pike Rd,Hot Springs,AR,71913,34.5037004,-93.0551795
4166773,Dominos,1826 E. Johnson Ave,Jonesboro,AR,72401,35.8422967,-90.704279
4167361,Dominos,1215 Lincoln Avenue,Alameda,CA,94501,37.7729763,-122.2645823
4167359,Dominos,703 S Atlantic Blvd,Alhambra,CA,91803,34.0839444,-118.1349803
4167320,Dominos,433 N Glenoaks Blvd,Burbank,CA,91502,34.1772371,-118.3082034
4167293,Dominos,7451 Auburn Blvd #C,Citrus Heights,CA,95610,38.7017707,-121.2908421
4167292,Dominos,366 W Foothill Blvd,Claremont,CA,91711,34.1067805,-117.7193773
4167251,Dominos,410-A West Felicita,Escondido,CA,92025,33.090285,-117.0499859
4167246,Dominos,16863 Foothill Blvd,Fontana,CA,92335,34.083787,-117.4673845
4167228,Dominos,110 W Foothill Blvd,Glendora,CA,91741,34.1462176,-117.8654032
4167226,Dominos,16215 Devonshire St,Granada Hills,CA,91344,34.2793576,-118.5021527
4167225,Dominos,16215 Devonshire St,Granada Hills,CA,91344,34.2793576,-118.5021527
4167212,Dominos,5065 Hollywood Blvd,Hollywood,CA,90027,34.0928092,-118.3286614
4167205,Dominos,955 N. La Brea Ave.,Inglewood,CA,90302,33.9742906,-118.3520389
4167197,Dominos,14234 IMPERIAL Hwy.,LA MIRADA,CA,90638,33.9172357,-118.0120086
4167188,Dominos,12040 Foothill Blvd,Lakeview Terrace,CA,91342,34.2779004,-118.3986682
4167157,Dominos,5742 E Olympic Blvd,Los Angeles,CA,90022,34.0238187,-118.153228
4167135,Dominos,1621 El Camino Real,Millbrae,CA,94030,37.5985468,-122.3871942
4167129,Dominos,829 S Atlantic Blvd,Monterey Park,CA,91754,34.0520549,-118.1377898
4167093,Dominos,1098 E Clark Avenue,Orcutt,CA,93455,34.8535067,-120.4095782
4167053,Dominos,25715 Redlands Blvd,Redlands,CA,92373,34.0555693,-117.1825381
4167041,Dominos,4012 Chicago Avenue,Riverside,CA,92507,33.9734553,-117.3263893
4167367,Dominos,865 Silver Spur Rd.,Rolling Hills Estates,CA,90274,33.7877943,-118.3581284
4167010,Dominos,1096 Cardiff Street,San Diego,CA,92114,32.7128406,-117.0364748
4166998,Dominos,3116 Noriega Street,San Francisco,CA,94116,37.7402972,-122.4959173
4166989,Dominos,1659-G Branham Lane,San Jose,CA,95118,37.2589827,-121.8847222
4166994,Dominos,1659-G Branham Lane,San Jose,CA,95118,37.2589827,-121.8847222
4166958,Dominos,987 Edgewood Circle,South Lake Tahoe,CA,96151,38.93,-119.98
4166947,Dominos,13044 Glenoaks Blvd,Sylmar,CA,91342,34.3075061,-118.4491988
4166904,Dominos,33982 Mission Trail,Wildomar,CA,92530,33.6273278,-117.2896239
4166900,Dominos,4973 Yorba Ranch Rd,Yorba Linda,CA,92887,33.8826713,-117.7647645
4167473,Dominos,8757 Wadsworth Blvd,Arvada,CO,80003,39.8557785,-105.0789885
4167468,Dominos,15281 E Mississippi,Aurora,CO,80012,39.7020217,-104.8396248
4167450,Dominos,2850 S Academy Blvd,Colorado Springs,CO,80916,38.8021891,-104.7229279
4167442,Dominos,12302 E 104th Place,Commerce City,CO,80022,39.8083196,-104.9338675
4167427,Dominos,2101 S. Downing St.,Denver,CO,80210,39.6751269,-104.9680914
4167432,Dominos,906 S Sheridan Blvd,Denver,CO,80226,39.7101457,-105.0849687
4167389,Dominos,4701 Peoria St #116,Montbello,CO,80239,39.7830602,-104.847761
4167383,Dominos,101 South McCulloch,Pueblo,CO,81007,38.3588522,-104.7754307
4167382,Dominos,2250 Santa Fe Drive,Pueblo,CO,81006,38.2292616,-104.4956239
4167378,Dominos,191 Blue River Pkwy,Silverthorne,CO,80498,39.6296191,-106.0712941
4167499,Dominos,1400 Boston Post Rd,Milford,CT,6460,41.2220944,-73.0464309
4167849,Dominos,1133 Del Prado Blvd,Cape Coral,FL,33990,26.6272788,-81.9425701
4167847,Dominos,1609 Andalusia Blvd,Cape Coral,FL,33909,26.6962931,-81.9207423
4167794,Dominos,3000 NW 83rd Street,Gainesville,FL,32606,29.6788293,-82.4644445
4167796,Dominos,5750 SW 75th Ct #40,Gainesville,FL,32608,29.6009423,-82.4229328
4167778,Dominos,213 E Highland Blvd,Inverness,FL,34450,28.8354507,-82.3313955
4167777,Dominos,10031 San Jose Blvd,Jacksonville,FL,32257,30.3324959,-81.407174
4167770,Dominos,12200 San Jose Blvd,Jacksonville,FL,32223,30.1588305,-81.6582994
4167724,Dominos,310 new haven ave W,Melbourne,FL,32901,28.0600145,-80.621591
4167701,Dominos,1446 N State Road 7,N. Margate,FL,33063,26.2445263,-80.206436
4167888,Dominos,7578 SE MARICAMP RD,Ocala,Fl,34472,29.1080163,-81.9752995
4167669,Dominos,18406 E Colonial Dr,Orlando,FL,32820,28.5808363,-81.1306391
4167671,Dominos,2510 S Semoran Blvd,Orlando,FL,32822,28.4750405,-81.2849169
4167668,Dominos,5389 S. Kirkman Rd.,Orlando,FL,32819,28.4630493,-81.460856
4167662,Dominos,6101 Silver Star Rd,Orlando,FL,32808,28.5775287,-81.4388858
4167652,Dominos,4388 Northlake Blvd,Palm Beach Gardens,FL,33410,26.8598894,-80.0870155
4167650,Dominos,219 St Joe Plaza Dr,Palm Coast,FL,32164,29.5100354,-81.2188355
4167643,Dominos,1111 W. 15Th Street,Panama City,FL,32401,30.170763,-85.6837756
4167630,Dominos,1864 S Jefferson St,Perry,FL,32347,30.1174351,-83.5818147
4167615,Dominos,10642 S Federal Hwy,Port st. Lucie,FL,34952,27.3212683,-80.3134352
4167601,Dominos,4080 Cattlemen Road,Sarasota,FL,34233,27.2948388,-82.4516167
4167576,Dominos,14955 N Florida Ave,Tampa,FL,33613,28.0882156,-82.4705215
4167575,Dominos,2316 E Fletcher Ave,Tampa,FL,33612,28.0563834,-82.4427769
4167573,Dominos,3601 W Kennedy Blvd,Tampa,FL,33609,27.9407591,-82.5104655
4167565,Dominos,1850 Knox Mcrae Dr.,Titusville,FL,32780,28.6122187,-80.8075537
4167558,Dominos,1336 S Military Trl,West Palm Beach,FL,33406,26.6625194,-80.1028583
4167556,Dominos,2800 N Military Trl,West Palm Beach,FL,33409,26.768916,-80.113054
4168027,Dominos,3300 Buford Highway,Atlanta,GA,30329,33.828105,-84.3279093
4167993,Dominos,1686 Buford Highway,Cumming,GA,30041,34.1614367,-84.1149653
4167897,Dominos,3591 Chattanooga Rd,Tunnel Hill,GA,30755,34.8406339,-85.0427257
4168287,Dominos,3903 W Algonquin Rd,Algonquin,IL,60102,42.1655801,-88.2942493
4168276,Dominos,6613 W. Cermak Road,Berwyn,IL,60402,41.8396409,-87.7881434
4168273,Dominos,2411 W 119th Street,Blue Island,IL,60406,41.6572562,-87.6800486
4168268,Dominos,701 Greenbriar Road,Carterville,IL,62918,37.7600501,-89.0772991
4168264,Dominos,1803 W Kirby Avenue,Champaign,IL,61821,40.1017582,-88.2753144
4168239,Dominos,2306 W. 95th Street,Chicago,IL,21201,39.2963369,-76.6210539
4168251,Dominos,5008 N Pulaski Road,Chicago,IL,60630,41.9720786,-87.7517295
4168217,Dominos,211 Army Trail Road,Glendale Heights,IL,60137,41.9372758,-88.0828005
4168214,Dominos,3988 Maryville Road,Granite City,IL,62040,38.7014389,-90.1487199
4168155,Dominos,738 E Schaumburg Rd,Schaumburg,IL,60194,42.0295826,-88.0613552
4168367,Dominos,527 N Walnut Street,Bloomington,IN,47404,40.2233869,-94.5458929
4168359,Dominos,1780 OLD HWY 135 NW,Corydon,IN,47112,38.2120121,-86.1219155
4168355,Dominos,2101 S Weinbach Ave,Evansville,IN,47708,37.9715592,-87.5710898
4168340,Dominos,5917 E. 82nd Street,Indianapolis,IN,46250,39.904342,-86.0631561
4168325,Dominos,1710 E Tenth Street,Jeffersonville,IN,47130,38.2775702,-85.7371847
4168309,Dominos,320 Broadway Street,New Haven,IN,46774,41.0706042,-85.0144124
4168302,Dominos,111 Heritage Square,Sellersburg,IN,47172,38.3981216,-85.754964
4168391,Dominos,10240 W 75th Street,Merriam,KS,66204,39.0236165,-94.6935701
4168384,Dominos,22231 W 66th Street,Shawnee,KS,66226,39.0220616,-94.8624355
4168449,Dominos,700 E Second Street,Henderson,KY,42420,37.8392286,-87.5831808
4168436,Dominos,7924 Fegenbush Lane,Louisville,KY,40228,38.1352484,-85.6280697
4168433,Dominos,812 Eastern Parkway,Louisville,KY,40217,38.2131874,-85.7410262
4168564,Dominos,1194 Bob Petit Blvd,Baton Rouge,LA,70820,30.372807,-91.1833043
4168758,Dominos,2478 Centreville Rd,Centreville,MD,21617,39.0063543,-76.0749141
4168704,Dominos,350 Fortune Terrace,Rockville,MD,20850,39.0839973,-77.1527578
4168658,Dominos,628 A Washington St,Dedham,MA,2026,42.2436085,-71.1676536
4168869,Dominos,15143 E 10 Mile Rd.,Eastpointe,MI,48021,42.4647421,-82.966585
4168848,Dominos,3151 Breton Road SE,Kentwood,MI,49512,42.8719547,-85.5940625
4168960,Dominos,17823 Kenwood Trail,Lakeville,MN,55044,44.6496868,-93.24272
4168957,Dominos,1865 W Wayzata Blvd,Long Lake,MN,55356,44.9866298,-93.5716243
4168953,Dominos,1001 E. College Dr.,Marshall,MN,56258,44.448423,-95.7911916
4168951,Dominos,2720 Winnetka Ave N,Minneapolis,MN,55427,40.3642728,-74.9512785
4169117,Dominos,2003 S Garrison Ave,Carthage,MO,64836,37.176447,-94.3102228
4169109,Dominos,609 N. Franklin Rd.,Cuba,MO,65453,38.0628225,-91.4034833
4169098,Dominos,102 West 6th Street,Fulton,MO,65251,38.8467082,-91.9479586
4169082,Dominos,1109 S Baltimore St,Kirksville,MO,63501,40.1947539,-92.5832496
4169077,Dominos,7259 Manchester Rd.,Maplewood,MO,63143,38.6125521,-90.3245599
4169066,Dominos,3441 Pheasant Point,O'Fallon,MO,63366,38.8106075,-90.6998477
4169040,Dominos,538 S. National Ave,Springfield,MO,65802,37.209566,-93.274604
4169014,Dominos,1331 N E Service Rd,Warrenton,MO,63383,38.8211845,-91.1391977
4169686,Dominos,5355 S Decatur Blvd,Las Vegas,NV,89118,36.0809667,-115.2244853
4169654,Dominos,1209 Menaul Blvd Nw,Albuquerque,NM,87107,35.1338614,-106.6409198
4169887,Dominos,738 Morris Park Ave,Bronx,NY,10467,40.861314,-73.865532
4169833,Dominos,501 Westbury Avenue,Carle Place,NY,11514,40.7513615,-73.605612
4169827,Dominos,853 Long Island Ave,Deer Park,NY,11729,40.7617653,-73.3292857
4169880,Dominos,803 W Whittier Blvd,Montebello,NY,10901,41.1359287,-74.118477
4169749,Dominos,33 E Central Avenue,Pearl River,NY,10965,33.4632001,-86.911147
4169738,Dominos,2095 E Henrietta Rd,Rochester,NY,14623,43.0883566,-77.5945435
4169731,Dominos,5640-30 Sunrise Hwy,Sayville,NY,11782,40.7359317,-73.0820556
4169397,Dominos,1289 N Fordham Blvd,Chapel Hill,NC,27514,35.9722081,-79.0475559
4169366,Dominos,1201 Cole Mill Road,Durham,NC,27705,36.025609,-78.9853813
4169353,Dominos,1368 N. Main Street,Fuquay-Varina,NC,27256,35.5577867,-79.2803499
4169352,Dominos,5576 NC 42 Hwy West,Garner,NC,27529,35.7112642,-78.6141709
4169344,Dominos,5136 Randleman Road,Greensboro,NC,27406,36.0196499,-79.7624177
4169331,Dominos,2310 S. Main Street,High Point,NC,27263,35.9154211,-79.9304633
4169277,Dominos,7315 Six Forks Road,Raleigh,NC,27615,35.8799204,-78.6459774
4169241,Dominos,1550 E Broad Street,Statesville,NC,28677,35.7826363,-80.8872959
4169223,Dominos,1732 JK Powell Blvd,Whiteville,NC,28472,34.3042525,-78.7183398
4170056,Dominos,12082 Montgomery Rd,Cincinnati,OH,45249,39.2931308,-84.3280701
4170019,Dominos,4110 E Galbraith Rd,Deer Park,OH,45236,39.2032293,-84.3995747
4169966,Dominos,3517 Roosevelt Blvd,Middletown,OH,45042,39.5150576,-84.3982763
4169910,Dominos,4602 E Mahoning Ave,Warren,OH,44483,41.2375569,-80.8184166
4170139,Dominos,740 W Danforth Road,Edmond,OK,73003,35.6655009,-97.4976536
4170120,Dominos,2724 N Pennsylvania,Oklahoma City,OK,73107,35.496607,-97.565737
4170122,Dominos,4628 S Pennsylvania,Oklahoma City,OK,73119,35.4213103,-97.5734783
4170115,Dominos,1436 N Harrison Ave,Shawnee,OK,74801,35.3113187,-96.9531225
4170105,Dominos,120 W Vandament Ave,Yukon,OK,73099,35.5067215,-97.7625441
4170202,Dominos,2455 NW Monroe Ave.,Corvallis,OR,97330,44.5645659,-123.2620435
4170195,Dominos,2870 NE Hogan Drive,Gresham,OR,97030,45.5140983,-122.4228701
4170368,Dominos,4233 Edgmont Avenue,Brookhaven,PA,19015,39.8692789,-75.3824144
4170344,Dominos,29 Dansbury Terrace,East Stroudsburg,PA,18301,41.0084387,-75.1844285
4170260,Dominos,240-6 West End Blvd,Quakertown,PA,18951,40.4417682,-75.3415667
4170512,Dominos,260 East Gate Drive,Aiken,SC,29803,33.4551831,-81.7568253
4170496,Dominos,100 Accolades Drive,Columbia,SC,29229,34.1585479,-80.8875861
4170515,Dominos,3880 Due West Rd Nw,Marietta,SC,29654,35.029167,-82.4975
4170433,Dominos,2307 Reidville Road,Spartanburg,SC,29301,34.9306384,-82.0189155
4170432,Dominos,10597 Dorchester Rd,Summerville,SC,29485,32.9745103,-80.1980254
4170634,Dominos,308 New Byhalia Rd.,Collierville,TN,38017,35.042036,-89.6645266
4170601,Dominos,11408 Kingston Pike,Knoxville,TN,37934,35.878021,-84.1555946
4170658,Dominos,10011 Dixie Highway,Louisville,TN,37777,35.8217479,-84.0479643
4171088,Dominos,4201 Westbank Drive,Austin,TX,78746,30.2962208,-97.8299383
4171041,Dominos,409 A University Dr,College Station,TX,77840,30.6188029,-96.3453459
4170993,Dominos,5076 Doniphan Drive,El Paso,TX,79922,31.8271036,-106.5760857
4171135,Dominos,8613 Alameda Avenue,El Paso,TX,79903,31.7775757,-106.4424559
4170954,Dominos,600 W Northwest Hwy,Grapevine,TX,76051,32.9342919,-97.0780654
4170942,Dominos,12837 Westheimer Rd,Houston,TX,77077,29.7357302,-95.5987387
4170914,Dominos,16001 S Post Oak RD,Houston,TX,77053,29.5897815,-95.4533607
4170911,Dominos,4233 Aldine Mail Rd,Houston,TX,77039,29.9068387,-95.3363951
4170916,Dominos,50 Aldine Bender Rd,Houston,TX,77060,29.938885,-95.3991907
4170873,Dominos,1606 S Fort Hood St,Killeen,TX,76541,31.1171194,-97.7277959
4170868,Dominos,4319 Kingwood Drive,Kingwood,TX,77339,30.0442264,-95.2162283
4170857,Dominos,5110a Mcpherson Ave,Laredo,TX,78041,27.5676627,-99.4450439
4170824,Dominos,3300 W Illinois Ave,Midland,TX,79703,31.9810423,-102.1346874
4170822,Dominos,606 N Big Spring St,Midland,TX,79701,32.003468,-102.077878
4170695,Dominos,5371 South Broadway,Tyler,TX,75703,32.2556612,-95.3207069
4171172,Dominos,1153 N. Main Street,Logan,UT,84321,41.7369803,-111.8338359
4171153,Dominos,1352 East Center St,Spanish Fork,UT,84660,40.114955,-111.654923
4171294,Dominos,4211 Plank Rd Ste D,Fredericksburg,VA,22407,38.3056063,-77.5848665
4171270,Dominos,8813 Centreville Rd,Manassas,VA,20110,38.7509488,-77.4752667
4171361,Dominos,16631 Mountain Road,Montpelier,VA,23192,37.8212538,-77.6844344
4171245,Dominos,10614 Patterson Ave,Richmond,VA,23233,37.6474638,-77.6249734
4171235,Dominos,923 Village Highway,Rustburg,VA,24588,37.2728551,-79.098396
4171457,Dominos,1036 Washington Way,Longview,WA,98632,46.1381676,-122.9381672
4171448,Dominos,270 SE Cabot Dr. #1,Oak Harbor,WA,98277,48.296,-122.65385
4171419,Dominos,2600 NW Randall Way,Silverdale,WA,98383,47.6560189,-122.6955808
4171407,Dominos,8442 Pacific Avenue,Tacoma,WA,98444,47.2556506,-122.4391491
4171391,Dominos,420 S 72nd Ave #140,Yakima,WA,98908,43.6380264,-86.3781897
4171536,Dominos,6918 N Teutonia Ave,Milwaukee,WI,53209,43.1484903,-87.9462162
4171524,Dominos,2301 Jackson Street,Oshkosh,WI,54901,44.0291228,-88.4984991
4167533,Dominos,2425 Pulaski Highway,Newark,DE,19702,39.6203775,-75.7487779
4169204,Dominos,2750 Old Hardin Road,Billings,MT,59101,45.805572,-108.4433135
4169462,Dominos,74 Portsmouth Avenue,Stratham,NH,3885,43.0228677,-70.9163873
4169436,Dominos,1380 9th Street East,West Fargo,ND,58078,46.8769487,-96.8999057
4171649,Dominos,3610 Dell Range Blvd,Cheyenne,WY,82009,41.1399814,-104.8202462
4166708,Dominos,110 Ladiga Street SW,Jacksonville,AL,36265,33.8137125,-85.7613536
4166885,Dominos,3875 W Ray Rd Ste 10,Chandler,AZ,85226,33.3134777,-111.9706935
4166850,Dominos,1241 E Chandler Blvd,Phoenix,AZ,85048,33.3023519,-112.0581134
4166841,Dominos,751 E Union Hills Dr,Phoenix,AZ,85024,33.6893937,-112.0416754
4166792,Dominos,2840 Bella Vista Way,Bella Vista,AR,72714,36.4704514,-94.2128337
4166777,Dominos,2110 Higdon Ferry Rd,Hot Springs,AR,71901,34.5037004,-93.0551795
4167338,Dominos,14604 Ramona Blvd #3,Baldwin Park,CA,91706,34.0893309,-117.9488549
4167321,Dominos,2015 N Hollywood Way,Burbank,CA,91505,34.1615135,-118.3403506
4167319,Dominos,26500 Agoura Rd #104,Calabasas,CA,91302,34.1434185,-118.6994521
4167311,Dominos,3555 Clares St Ste A,Capitola,CA,95010,36.9764598,-121.9501551
4167223,Dominos,15908 Halliburton Rd,Hacienda Heights,CA,91745,33.9930677,-117.9686755
4167160,Dominos,1381 W. Sunset BLVD.,Los Angeles,CA,90026,34.0724571,-118.2489741
4167167,Dominos,1759 W Colorado Blvd,Los Angeles,CA,90041,34.1396818,-118.2058241
4167148,Dominos,2025 E. Florence Ave,Los Angeles,CA,90001,33.9747245,-118.2347101
4167170,Dominos,2101 W. Century Blvd,Los Angeles,CA,90047,33.9530279,-118.3177239
4167151,Dominos,2803 Figueroa Street,Los Angeles,CA,90007,34.0282521,-118.2821958
4167166,Dominos,5401 S. Figueroa St.,Los Angeles,CA,90037,33.9891531,-118.2836169
4167168,Dominos,950 W Manchester Ave,Los Angeles,CA,90044,33.9478802,-118.2935891
4167369,Dominos,129 S. Frontage Road,Nipomo,CA,93444,35.0427547,-120.4759986
4167101,Dominos,13030 VANDEGRIFT AVE,OCEANSIDE,CA,92054,33.1958696,-117.3794834
4167078,Dominos,15500 Paramount Blvd,Paramount,CA,90723,33.8928164,-118.1598286
4167067,Dominos,1913 N Placentia Ave,Placentia,CA,92870,33.8722371,-117.8703363
4167042,Dominos,4955 Felspar Suite E,Riverside,CA,92509,33.9996052,-117.4321452
4167028,Dominos,1901 J Street Unit C,Sacramento,CA,95811,38.5687106,-121.4239226
4167014,Dominos,10606 Camino Ruiz #9,San Diego,CA,92126,32.910004,-117.1448098
4166988,Dominos,576 E Santa Clara St,San Jose,CA,95112,37.3456227,-121.8847222
4166965,Dominos,2934 Westminster Ave,Seal Beach,CA,90740,33.7584108,-118.0808776
4166941,Dominos,2220 N Moorpark #104,Thousand Oaks,CA,91360,34.2092232,-118.8678105
4167456,Dominos,10909 E. Arapahoe Pl,Centennial,CO,80111,39.6166715,-104.8746508
4167451,Dominos,5168 N Academy BLVD.,Colorado Springs,CO,80918,38.9043608,-104.7637619
4167413,Dominos,6890 Mesa Ridge Pkwy,Fountain,CO,80917,38.8825531,-104.7345937
4167408,Dominos,2249 Broadway # 102a,Grand Junction,CO,81503,40.7849741,-73.979467
4167387,Dominos,481 Hwy. 105 Ste.200,Monument,CO,80132,39.0916586,-104.872758
4167864,Dominos,5830 Se Abshire Blvd,Belleview,FL,34420,29.0552578,-82.0623105
4167859,Dominos,10114 S Military Trl,Boynton Beach,FL,33436,26.5246276,-80.1229057
4167854,Dominos,947 E. Brandon Blvd.,Brandon,FL,33511,27.9376014,-82.270106
4167850,Dominos,394 Highway 29 South,Cantonment,FL,32533,30.581913,-87.303645
4167821,Dominos,1675 Providence Blvd,Deltona,FL,32725,28.905593,-81.226617
4167819,Dominos,1822 S Ridgewood Ave,Edgewater,FL,32141,28.971993,-80.896034
4167759,Dominos,2562 W Indiantown Rd,Jupiter,FL,33458,26.9342246,-80.0942087
4167750,Dominos,2372 W US Highway 90,Lake City,FL,32055,30.1896756,-82.6392899
4167729,Dominos,1510 S. Orlando Ave.,Maitland,FL,32751,28.6146762,-81.3651449
4167665,Dominos,2712 Chickasaw Trail,Orlando,FL,32817,28.5880175,-81.2408689
4167672,Dominos,9326 Narcoossee Road,Orlando,FL,32827,28.4055091,-81.2849169
4167640,Dominos,9528 Front Beach Rd.,Panama City Beach,FL,32408,30.14763,-85.735897
4167619,Dominos,1940-1 Kings Highway,Port Charlotte,FL,33952,26.9761707,-82.0906448
4167618,Dominos,2150-A Tamiami Trail,Port Charlotte,FL,33948,26.9995213,-82.1229157
4167595,Dominos,13081 Spring Hill Dr,Spring Hill,FL,34609,28.4599887,-82.5344172
4167566,Dominos,1540 N Singleton Ave,Titusville,FL,32796,28.6311026,-80.8433145
4168005,Dominos,12 Euharlee Rd Ste E,Cartersville,GA,30120,34.124168,-84.8486099
4167964,Dominos,3643 Cherokee Street,Kennesaw,GA,30144,34.019288,-84.5959613
4167942,Dominos,3100 Washington Road,Martinez,GA,30907,33.5173577,-82.0756734
4168283,Dominos,380 W Galena Suite 1,Aurora,IL,60506,41.7691984,-88.3821989
4168248,Dominos,321 East 35th Street,Chicago,IL,60616,41.8403395,-87.6137011
4168254,Dominos,4608 W Fullerton Ave,Chicago,IL,60639,41.9246869,-87.7419833
4168204,Dominos,2081 Barrington Road,Hoffman Estates,IL,60169,42.057799,-88.114494
4168203,Dominos,2141 W. 183rd Street,Homewood,IL,60430,41.5572567,-87.6656014
4168288,Dominos,469-B W. Liberty St.,Wauconda,IL,60084,42.2589122,-88.1392474
4168137,Dominos,323 W Irving Park Rd,Wood Dale,IL,60191,41.9633625,-87.9789562
4168353,Dominos,1940 N GreenRiver Rd,Evansville,IN,47715,37.961954,-87.4703029
4168347,Dominos,1713 N Morton Street,Franklin,IN,46131,42.2748876,-71.0720241
4168299,Dominos,527 N Section Street,Sullivan,IN,47882,39.0953199,-87.4058525
4168371,Dominos,437 S John Sims Pkwy,Valparaiso,IN,46383,41.4730948,-87.0611412
4168467,Dominos,2201A Stonehenge Ave,Bowling Green,KY,42101,36.9826211,-86.4829835
4168446,Dominos,310 South 1st Street,Lagrange,KY,40031,38.4166464,-85.4169211
4168444,Dominos,3130 Pimlico Parkway,Lexington,KY,40517,37.9817391,-84.485507
4168428,Dominos,2400 Brownsboro Road,Louisville,KY,40206,38.2587807,-85.6978476
4168748,Dominos,10518 Greensboro Rd.,Denton,MD,21629,38.8845582,-75.8271563
4168719,Dominos,8268 Vetrans Highway,Millersville,MD,21108,39.1122481,-76.6237404
4168713,Dominos,18037 GEORGIA AVENUE,Olney,MD,20832,39.1531627,-77.066923
4168667,Dominos,1144 Saratoga Street,Boston,MA,2128,42.3695431,-71.0200613
4168664,Dominos,1085 N. Montello St.,Brockton,MA,2301,42.0725522,-71.0378909
4168654,Dominos,390 Rhode Island Ave,Fall River,MA,2724,41.6883098,-71.1745579
4168875,Dominos,10437 West McNichols,Detroit,MI,48221,42.4349152,-83.1541796
4168863,Dominos,2113 S Ballenger Hwy,Flint,MI,48503,43.0145534,-83.6720756
4168854,Dominos,264 N River Ave # 20,Holland,MI,49424,42.805741,-86.1156428
4168817,Dominos,2080 Niles Road #100,St Joseph,MI,49085,42.0786787,-86.4841276
4168988,Dominos,9370 Lexington Ave N,Circle Pines,MN,55014,45.1668089,-93.1218479
4168968,Dominos,17565 Central Ave NE,Ham Lake,MN,55304,45.2841866,-93.2086534
4168945,Dominos,4552 Bloomington Ave,Minneapolis,MN,55407,44.9398026,-93.2533339
4168944,Dominos,4737 Hiawatha Avenue,Minneapolis,MN,55406,44.9406559,-93.2231727
4168929,Dominos,5863 Neil Ave. North,Oak Park Hts,MN,56435,46.729553,-94.6858998
4169128,Dominos,1951 Richardson Road,Arnold,MO,63010,38.4328317,-90.3776187
4169096,Dominos,2711 High Ridge Blvd,High Ridge,MO,63049,38.4732609,-90.5352356
4169092,Dominos,318 E Main Street #1,Jackson,MO,63755,39.3399327,-80.0142222
4169024,Dominos,9605 Manchester Road,St. Louis,MO,63119,38.5842641,-90.3513021
4169691,Dominos,4860 Blue Diamond Rd,Las Vegas,NV,89139,36.0402159,-115.2244853
4169681,Dominos,5124 Camino Al Norte,North Las Vegas,NV,89030,36.1988592,-115.1175013
4169611,Dominos,440 White Horse Pike,Atco,NJ,8004,39.7697878,-74.887946
4169555,Dominos,942 Radio Rd. Unit 7,Little Egg Harbor,NJ,8087,39.5675854,-74.369887
4169516,Dominos,1100 Route 130 South,Robbinsville,NJ,8691,40.2162036,-74.6195327
4169501,Dominos,1805 North Olden Ave,Trenton,NJ,8638,40.2791109,-74.7798658
4169371,Dominos,104 Five Points Road,Dudley,NC,28333,35.2939432,-77.9967043
4169362,Dominos,640 S Van Buren Road,Eden,NC,27288,36.4884715,-79.7667026
4169310,Dominos,150 Forest Hill Road,Lexington,NC,27295,35.8240265,-80.2533838
4169279,Dominos,13220 Strickland Rd.,Raleigh,NC,27613,35.9095922,-78.7267416
4169207,Dominos,528 - B Hawthorne Rd,Yadkinville,NC,27055,36.1351995,-80.6482362
4170051,Dominos,1969 Eight Mile Road,Cincinnati,OH,45230,39.0714909,-84.3857442
4170055,Dominos,7569 Bridgetown Road,Cincinnati,OH,45248,39.1543515,-84.6685327
4170008,Dominos,1008 E Second Street,Franklin,OH,45005,39.5589474,-84.3041074
